[
	{
		"postcode" : "AB1",
		"latitude" : "57.1269",
		"longitude" : "-2.13645",
		"easting" : "391838",
		"northing" : "804005",
		"grid_reference" : "NJ918040",
		"town_area" : "Aberdeen",
		"region" : "Aberdeen",
		"postcodes" : "2655",
		"active_postcodes" : "0",
		"population" : null,
		"households" : null,
		"nearby_districts" : "AB10, AB9, AB15, AB25, AB2, AB12, AB16, AB11, AB99, AB24",
		"uk_region" : "Scotland",
		"post_town" : null
	},
	{
		"postcode" : "AB2",
		"latitude" : "57.1713",
		"longitude" : "-2.14152",
		"easting" : "391541",
		"northing" : "808949",
		"grid_reference" : "NJ915089",
		"town_area" : "Aberdeen",
		"region" : "Aberdeen",
		"postcodes" : "3070",
		"active_postcodes" : "0",
		"population" : null,
		"households" : null,
		"nearby_districts" : "AB16, AB22, AB24, AB25, AB1, AB9, AB15, AB10, AB11, AB23",
		"uk_region" : "Scotland",
		"post_town" : null
	},
	{
		"postcode" : "AB3",
		"latitude" : "57.0876",
		"longitude" : "-2.59624",
		"easting" : "363963",
		"northing" : "799780",
		"grid_reference" : "NO639997",
		"town_area" : "Aberdeen",
		"region" : "Aberdeen",
		"postcodes" : "2168",
		"active_postcodes" : "0",
		"population" : null,
		"households" : null,
		"nearby_districts" : "AB31, AB34, AB52, AB33, AB14, AB32, AB30, AB13, AB51, DD9",
		"uk_region" : "Scotland",
		"post_town" : null
	},
	{
		"postcode" : "AB4",
		"latitude" : "57.5343",
		"longitude" : "-2.12713",
		"easting" : "392487",
		"northing" : "849358",
		"grid_reference" : "NJ924493",
		"town_area" : "Fraserburgh, Peterhead, Macduff",
		"region" : "Aberdeen",
		"postcodes" : "2956",
		"active_postcodes" : "0",
		"population" : null,
		"households" : null,
		"nearby_districts" : "AB41, AB43, AB42, AB53, AB22, AB23, AB2, AB24, AB25, AB21",
		"uk_region" : "Scotland",
		"post_town" : null
	},
	{
		"postcode" : "AB5",
		"latitude" : "57.4651",
		"longitude" : "-2.64764",
		"easting" : "361248",
		"northing" : "841832",
		"grid_reference" : "NJ612418",
		"town_area" : "Buckie, Huntly, Inverurie",
		"region" : "Aberdeen",
		"postcodes" : "3002",
		"active_postcodes" : "0",
		"population" : null,
		"households" : null,
		"nearby_districts" : "AB54, AB52, AB45, AB53, AB33, AB44, AB55, AB51, AB3, AB56",
		"uk_region" : "Scotland",
		"post_town" : null
	},
	{
		"postcode" : "AB9",
		"latitude" : "57.1466",
		"longitude" : "-2.1142",
		"easting" : "393189",
		"northing" : "806196",
		"grid_reference" : "NJ931061",
		"town_area" : "Aberdeen",
		"region" : "Aberdeen",
		"postcodes" : "1066",
		"active_postcodes" : "0",
		"population" : null,
		"households" : null,
		"nearby_districts" : "AB25, AB10, AB24, AB11, AB1, AB22, AB12, AB2, AB16, AB99",
		"uk_region" : "Scotland",
		"post_town" : null
	},
	{
		"postcode" : "AB10",
		"latitude" : "57.1349",
		"longitude" : "-2.11742",
		"easting" : "392992",
		"northing" : "804894",
		"grid_reference" : "NJ929048",
		"town_area" : "Aberdeen city centre, Bridge of Dee, Mannofield",
		"region" : "Aberdeen",
		"postcodes" : "901",
		"active_postcodes" : "666",
		"population" : "21964",
		"households" : "11517",
		"nearby_districts" : "AB9, AB25, AB11, AB1, AB24, AB12, AB99, AB15, AB22, AB2",
		"uk_region" : "Scotland",
		"post_town" : "Aberdeen"
	},
	{
		"postcode" : "AB11",
		"latitude" : "57.1372",
		"longitude" : "-2.09353",
		"easting" : "394438",
		"northing" : "805148",
		"grid_reference" : "NJ944051",
		"town_area" : "Aberdeen city centre, Torry",
		"region" : "Aberdeen",
		"postcodes" : "901",
		"active_postcodes" : "636",
		"population" : "21237",
		"households" : "10926",
		"nearby_districts" : "AB10, AB99, AB9, AB25, AB24, AB12, AB1, AB23, AB15, AB22",
		"uk_region" : "Scotland",
		"post_town" : "Aberdeen"
	},
	{
		"postcode" : "AB12",
		"latitude" : "57.1034",
		"longitude" : "-2.1098",
		"easting" : "393447",
		"northing" : "801387",
		"grid_reference" : "NJ934013",
		"town_area" : "Aberdeen, Altens, Ardoe, Banchory Devenick, Blairs, Bridge of Dee, Cove Bay, Maryculter, Nigg, Portlethen",
		"region" : "Aberdeen",
		"postcodes" : "1067",
		"active_postcodes" : "802",
		"population" : "25414",
		"households" : "10688",
		"nearby_districts" : "AB99, AB10, AB9, AB11, AB1, AB25, AB24, AB15, AB22, AB2",
		"uk_region" : "Scotland",
		"post_town" : "Aberdeen"
	},
	{
		"postcode" : "AB13",
		"latitude" : "57.1123",
		"longitude" : "-2.24178",
		"easting" : "385455",
		"northing" : "802398",
		"grid_reference" : "NJ854023",
		"town_area" : "Milltimber",
		"region" : "Aberdeen",
		"postcodes" : "124",
		"active_postcodes" : "100",
		"population" : "2725",
		"households" : "947",
		"nearby_districts" : "AB14, AB15, AB32, AB1, AB16, AB21, AB12, AB10, AB99, AB39",
		"uk_region" : "Scotland",
		"post_town" : "Milltimber"
	},
	{
		"postcode" : "AB14",
		"latitude" : "57.1034",
		"longitude" : "-2.27295",
		"easting" : "383563",
		"northing" : "801414",
		"grid_reference" : "NJ835014",
		"town_area" : "Peterculter, Upper Anguston",
		"region" : "Aberdeen",
		"postcodes" : "167",
		"active_postcodes" : "143",
		"population" : "4881",
		"households" : "2162",
		"nearby_districts" : "AB13, AB32, AB15, AB1, AB12, AB16, AB21, AB39, AB99, AB10",
		"uk_region" : "Scotland",
		"post_town" : "Peterculter"
	},
	{
		"postcode" : "AB15",
		"latitude" : "57.1386",
		"longitude" : "-2.16782",
		"easting" : "389942",
		"northing" : "805312",
		"grid_reference" : "NJ899053",
		"town_area" : "Aberdeen, Bieldside, Craigiebuckler, Cults, Hazlehead, Kingswells, Mannofield, Milltimber",
		"region" : "Aberdeen",
		"postcodes" : "1311",
		"active_postcodes" : "1111",
		"population" : "35543",
		"households" : "15330",
		"nearby_districts" : "AB16, AB1, AB10, AB2, AB9, AB25, AB11, AB24, AB12, AB22",
		"uk_region" : "Scotland",
		"post_town" : "Aberdeen"
	},
	{
		"postcode" : "AB16",
		"latitude" : "57.1594",
		"longitude" : "-2.15661",
		"easting" : "390626",
		"northing" : "807626",
		"grid_reference" : "NJ906076",
		"town_area" : "Aberdeen, Mastrick, Northfield, Middlefield, Cornhill",
		"region" : "Aberdeen",
		"postcodes" : "938",
		"active_postcodes" : "769",
		"population" : "29238",
		"households" : "12874",
		"nearby_districts" : "AB2, AB15, AB25, AB24, AB1, AB9, AB22, AB10, AB11, AB21",
		"uk_region" : "Scotland",
		"post_town" : "Aberdeen"
	},
	{
		"postcode" : "AB21",
		"latitude" : "57.2069",
		"longitude" : "-2.19978",
		"easting" : "388030",
		"northing" : "812921",
		"grid_reference" : "NJ880129",
		"town_area" : "Aberdeen, Blackburn, Bucksburn, Dyce, Fintray, Kinellar, Newmachar, Whiterashes",
		"region" : "Aberdeen",
		"postcodes" : "981",
		"active_postcodes" : "819",
		"population" : "22181",
		"households" : "9650",
		"nearby_districts" : "AB16, AB2, AB22, AB15, AB23, AB24, AB13, AB25, AB1, AB9",
		"uk_region" : "Scotland",
		"post_town" : "Aberdeen"
	},
	{
		"postcode" : "AB22",
		"latitude" : "57.1866",
		"longitude" : "-2.12026",
		"easting" : "392830",
		"northing" : "810649",
		"grid_reference" : "NJ928106",
		"town_area" : "Aberdeen, Bridge of Don, Danestone, Grandholm, Persley",
		"region" : "Aberdeen",
		"postcodes" : "391",
		"active_postcodes" : "326",
		"population" : "16311",
		"households" : "6978",
		"nearby_districts" : "AB24, AB2, AB25, AB9, AB23, AB10, AB16, AB1, AB11, AB12",
		"uk_region" : "Scotland",
		"post_town" : "Aberdeen"
	},
	{
		"postcode" : "AB23",
		"latitude" : "57.2077",
		"longitude" : "-2.08936",
		"easting" : "394701",
		"northing" : "812995",
		"grid_reference" : "NJ947129",
		"town_area" : "Aberdeen, Balmedie, Belhelvie, Bridge of Don, Potterton, Whitecairns",
		"region" : "Aberdeen",
		"postcodes" : "431",
		"active_postcodes" : "342",
		"population" : "11143",
		"households" : "4517",
		"nearby_districts" : "AB22, AB24, AB11, AB25, AB9, AB2, AB10, AB99, AB21, AB16",
		"uk_region" : "Scotland",
		"post_town" : "Aberdeen"
	},
	{
		"postcode" : "AB24",
		"latitude" : "57.1634",
		"longitude" : "-2.10827",
		"easting" : "393550",
		"northing" : "808065",
		"grid_reference" : "NJ935080",
		"town_area" : "Aberdeen, Old Aberdeen, Woodside, Tillydrone, Seaton, Bedford",
		"region" : "Aberdeen",
		"postcodes" : "979",
		"active_postcodes" : "818",
		"population" : "36343",
		"households" : "16935",
		"nearby_districts" : "AB25, AB9, AB22, AB10, AB11, AB2, AB16, AB12, AB23, AB1",
		"uk_region" : "Scotland",
		"post_town" : "Aberdeen"
	},
	{
		"postcode" : "AB25",
		"latitude" : "57.1536",
		"longitude" : "-2.11442",
		"easting" : "393177",
		"northing" : "806975",
		"grid_reference" : "NJ931069",
		"town_area" : "Aberdeen city centre, Kittybrewster, Foresterhill, Rosemount, George Street",
		"region" : "Aberdeen",
		"postcodes" : "652",
		"active_postcodes" : "483",
		"population" : "18407",
		"households" : "9634",
		"nearby_districts" : "AB9, AB24, AB10, AB11, AB22, AB2, AB16, AB1, AB12, AB99",
		"uk_region" : "Scotland",
		"post_town" : "Aberdeen"
	},
	{
		"postcode" : "AB30",
		"latitude" : "56.8453",
		"longitude" : "-2.47712",
		"easting" : "370994",
		"northing" : "772751",
		"grid_reference" : "NO709727",
		"town_area" : "Laurencekirk",
		"region" : "Aberdeenshire",
		"postcodes" : "369",
		"active_postcodes" : "321",
		"population" : "7229",
		"households" : "2935",
		"nearby_districts" : "DD10, AB31, DD9, AB3, DD11, AB39, AB14, AB32, AB13, AB51",
		"uk_region" : "Scotland",
		"post_town" : "\tLaurencekirk"
	},
	{
		"postcode" : "AB31",
		"latitude" : "57.0669",
		"longitude" : "-2.50466",
		"easting" : "369496",
		"northing" : "797431",
		"grid_reference" : "NO694974",
		"town_area" : "Banchory",
		"region" : "Aberdeenshire",
		"postcodes" : "1077",
		"active_postcodes" : "659",
		"population" : "15319",
		"households" : "6096",
		"nearby_districts" : "AB3, AB30, AB14, AB32, AB13, AB51, AB34, AB52, AB39, AB33",
		"uk_region" : "Scotland",
		"post_town" : "Banchory"
	},
	{
		"postcode" : "AB32",
		"latitude" : "57.1543",
		"longitude" : "-2.31434",
		"easting" : "381082",
		"northing" : "807091",
		"grid_reference" : "NJ810070",
		"town_area" : "Westhill",
		"region" : "Aberdeenshire",
		"postcodes" : "442",
		"active_postcodes" : "368",
		"population" : "12902",
		"households" : "5011",
		"nearby_districts" : "AB14, AB13, AB15, AB16, AB21, AB2, AB25, AB1, AB9, AB24",
		"uk_region" : "Scotland",
		"post_town" : "Westhill"
	},
	{
		"postcode" : "AB33",
		"latitude" : "57.2261",
		"longitude" : "-2.73651",
		"easting" : "355628",
		"northing" : "815281",
		"grid_reference" : "NJ556152",
		"town_area" : "Alford",
		"region" : "Aberdeenshire",
		"postcodes" : "314",
		"active_postcodes" : "272",
		"population" : "5273",
		"households" : "2180",
		"nearby_districts" : "AB34, AB52, AB54, AB3, AB5, AB36, AB31, AB51, AB32, AB55",
		"uk_region" : "Scotland",
		"post_town" : "Alford"
	},
	{
		"postcode" : "AB34",
		"latitude" : "57.0926",
		"longitude" : "-2.80979",
		"easting" : "351027",
		"northing" : "800470",
		"grid_reference" : "NJ510004",
		"town_area" : "Aboyne",
		"region" : "Aberdeenshire",
		"postcodes" : "299",
		"active_postcodes" : "274",
		"population" : "5387",
		"households" : "2309",
		"nearby_districts" : "AB33, AB3, AB31, AB36, AB35, AB54, AB52, DD9, AB5, AB14",
		"uk_region" : "Scotland",
		"post_town" : "Aboyne"
	},
	{
		"postcode" : "AB35",
		"latitude" : "57.039",
		"longitude" : "-3.14395",
		"easting" : "330679",
		"northing" : "794794",
		"grid_reference" : "NO306947",
		"town_area" : "Ballater",
		"region" : "Aberdeenshire",
		"postcodes" : "202",
		"active_postcodes" : "165",
		"population" : "2624",
		"households" : "1217",
		"nearby_districts" : "AB36, AB34, PH12, PH11, AB37, AB38, IV33, IV34, AB33, AB3",
		"uk_region" : "Scotland",
		"post_town" : "Ballater"
	},
	{
		"postcode" : "AB36",
		"latitude" : "57.1964",
		"longitude" : "-3.07247",
		"easting" : "335292",
		"northing" : "812244",
		"grid_reference" : "NJ352122",
		"town_area" : "Strathdon",
		"region" : "Aberdeenshire",
		"postcodes" : "55",
		"active_postcodes" : "47",
		"population" : "515",
		"households" : "242",
		"nearby_districts" : "AB35, AB33, AB34, AB37, AB55, AB38, IV33, IV32, IV34, IV35",
		"uk_region" : "Scotland",
		"post_town" : "Strathdon"
	},
	{
		"postcode" : "AB37",
		"latitude" : "57.3301",
		"longitude" : "-3.3533",
		"easting" : "318619",
		"northing" : "827428",
		"grid_reference" : "NJ186274",
		"town_area" : "Ballindalloch",
		"region" : "Moray",
		"postcodes" : "96",
		"active_postcodes" : "88",
		"population" : "1534",
		"households" : "678",
		"nearby_districts" : "IV35, IV34, PH26, AB38, IV33, IV30, PH25, AB36, IV31, PH24",
		"uk_region" : "Scotland",
		"post_town" : "Ballindalloch"
	},
	{
		"postcode" : "AB38",
		"latitude" : "57.4853",
		"longitude" : "-3.22733",
		"easting" : "326515",
		"northing" : "844560",
		"grid_reference" : "NJ265445",
		"town_area" : "Aberlour",
		"region" : "Moray",
		"postcodes" : "184",
		"active_postcodes" : "163",
		"population" : "4660",
		"households" : "2009",
		"nearby_districts" : "IV33, IV34, IV35, IV32, IV30, AB37, IV31, AB55, AB36, AB54",
		"uk_region" : "Scotland",
		"post_town" : "Aberlour"
	},
	{
		"postcode" : "AB39",
		"latitude" : "56.9802",
		"longitude" : "-2.21512",
		"easting" : "387023",
		"northing" : "787687",
		"grid_reference" : "NO870876",
		"town_area" : "Stonehaven, Newtonhill",
		"region" : "Aberdeenshire",
		"postcodes" : "633",
		"active_postcodes" : "550",
		"population" : "17645",
		"households" : "7238",
		"nearby_districts" : "AB13, AB14, AB15, AB1, AB12, AB16, AB21, AB99, AB10, AB2",
		"uk_region" : "Scotland",
		"post_town" : "Stonehaven"
	},
	{
		"postcode" : "AB41",
		"latitude" : "57.3717",
		"longitude" : "-2.1172",
		"easting" : "393050",
		"northing" : "831255",
		"grid_reference" : "NJ930312",
		"town_area" : "Ellon",
		"region" : "Aberdeenshire",
		"postcodes" : "1194",
		"active_postcodes" : "826",
		"population" : "20837",
		"households" : "8517",
		"nearby_districts" : "AB4, AB22, AB23, AB24, AB25, AB2, AB9, AB10, AB21, AB16",
		"uk_region" : "Scotland",
		"post_town" : "Ellon"
	},
	{
		"postcode" : "AB42",
		"latitude" : "57.5016",
		"longitude" : "-1.88869",
		"easting" : "406770",
		"northing" : "845716",
		"grid_reference" : "NK067457",
		"town_area" : "Hatton, St. Fergus",
		"region" : "Aberdeenshire",
		"postcodes" : "2436",
		"active_postcodes" : "1254",
		"population" : "33730",
		"households" : "14367",
		"nearby_districts" : "AB4, AB43, AB41, AB23, AB22, AB53, AB24, AB11, AB25, AB9",
		"uk_region" : "Scotland",
		"post_town" : "Peterhead"
	},
	{
		"postcode" : "AB43",
		"latitude" : "57.6578",
		"longitude" : "-2.04473",
		"easting" : "397430",
		"northing" : "863101",
		"grid_reference" : "NJ974631",
		"town_area" : "Crimond",
		"region" : "Aberdeenshire",
		"postcodes" : "1463",
		"active_postcodes" : "772",
		"population" : "23998",
		"households" : "10103",
		"nearby_districts" : "AB4, AB42, AB41, AB44, AB53, AB23, AB45, AB22, AB24, AB11",
		"uk_region" : "Scotland",
		"post_town" : "Fraserburgh"
	},
	{
		"postcode" : "AB44",
		"latitude" : "57.6682",
		"longitude" : "-2.49294",
		"easting" : "370692",
		"northing" : "864365",
		"grid_reference" : "NJ706643",
		"town_area" : "Macduff",
		"region" : "Aberdeenshire",
		"postcodes" : "158",
		"active_postcodes" : "147",
		"population" : "4009",
		"households" : "1794",
		"nearby_districts" : "AB45, AB53, AB5, AB56, AB52, AB43, AB54, AB51, AB4, AB31",
		"uk_region" : "Scotland",
		"post_town" : "Macduff"
	},
	{
		"postcode" : "AB45",
		"latitude" : "57.6522",
		"longitude" : "-2.567",
		"easting" : "366259",
		"northing" : "862618",
		"grid_reference" : "NJ662626",
		"town_area" : "Banff",
		"region" : "Aberdeenshire",
		"postcodes" : "691",
		"active_postcodes" : "614",
		"population" : "11130",
		"households" : "4900",
		"nearby_districts" : "AB44, AB5, AB53, AB52, AB56, AB54, AB51, AB43, AB55, AB4",
		"uk_region" : "Scotland",
		"post_town" : "Banff"
	},
	{
		"postcode" : "AB51",
		"latitude" : "57.288",
		"longitude" : "-2.40432",
		"easting" : "375727",
		"northing" : "822003",
		"grid_reference" : "NJ757220",
		"town_area" : "Inverurie",
		"region" : "Aberdeenshire",
		"postcodes" : "1775",
		"active_postcodes" : "1207",
		"population" : "34643",
		"households" : "14152",
		"nearby_districts" : "AB32, AB53, AB52, AB21, AB14, AB31, AB13, AB41, AB16, AB2",
		"uk_region" : "Scotland",
		"post_town" : "Inverurie"
	},
	{
		"postcode" : "AB52",
		"latitude" : "57.3423",
		"longitude" : "-2.6024",
		"easting" : "363840",
		"northing" : "828137",
		"grid_reference" : "NJ638281",
		"town_area" : "Insch",
		"region" : "Aberdeenshire",
		"postcodes" : "261",
		"active_postcodes" : "250",
		"population" : "4758",
		"households" : "1952",
		"nearby_districts" : "AB5, AB33, AB51, AB3, AB54, AB45, AB31, AB53, AB44, AB34",
		"uk_region" : "Scotland",
		"post_town" : "Insch"
	},
	{
		"postcode" : "AB53",
		"latitude" : "57.5343",
		"longitude" : "-2.40737",
		"easting" : "375707",
		"northing" : "849424",
		"grid_reference" : "NJ757494",
		"town_area" : "Turriff",
		"region" : "Aberdeenshire",
		"postcodes" : "1081",
		"active_postcodes" : "685",
		"population" : "12613",
		"households" : "5325",
		"nearby_districts" : "AB44, AB51, AB45, AB4, AB5, AB52, AB54, AB41, AB32, AB43",
		"uk_region" : "Scotland",
		"post_town" : "Turriff"
	},
	{
		"postcode" : "AB54",
		"latitude" : "57.4656",
		"longitude" : "-2.75621",
		"easting" : "354735",
		"northing" : "841955",
		"grid_reference" : "NJ547419",
		"town_area" : "Aberchirder, Cabrach, Cairnie, Forgue, Gartly, Glass, Kennethmont, Lumsden, Rhynie, Rothiemay",
		"region" : "Aberdeenshire",
		"postcodes" : "1057",
		"active_postcodes" : "658",
		"population" : "11367",
		"households" : "5003",
		"nearby_districts" : "AB5, AB33, AB52, AB55, AB56, AB45, AB53, AB34, AB44, AB38",
		"uk_region" : "Scotland",
		"post_town" : "Huntly"
	},
	{
		"postcode" : "AB55",
		"latitude" : "57.5325",
		"longitude" : "-2.97543",
		"easting" : "341692",
		"northing" : "849570",
		"grid_reference" : "NJ416495",
		"town_area" : "Keith",
		"region" : "Moray",
		"postcodes" : "755",
		"active_postcodes" : "429",
		"population" : "9307",
		"households" : "4097",
		"nearby_districts" : "AB56, IV32, IV33, AB54, AB38, IV34, AB5, AB36, IV35, IV30",
		"uk_region" : "Scotland",
		"post_town" : "Keith"
	},
	{
		"postcode" : "AB56",
		"latitude" : "57.6735",
		"longitude" : "-2.91947",
		"easting" : "345256",
		"northing" : "865220",
		"grid_reference" : "NJ452652",
		"town_area" : "Buckie",
		"region" : "Moray",
		"postcodes" : "1020",
		"active_postcodes" : "644",
		"population" : "14825",
		"households" : "6515",
		"nearby_districts" : "AB55, IV32, AB54, AB45, IV31, IV30, AB44, IV33, AB5, AB38",
		"uk_region" : "Scotland",
		"post_town" : "\tBuckie"
	},
	{
		"postcode" : "AB99",
		"latitude" : "57.1113",
		"longitude" : "-2.094",
		"easting" : "394406",
		"northing" : "802265",
		"grid_reference" : "NJ944022",
		"town_area" : "Non-geographic",
		"region" : "Aberdeen",
		"postcodes" : "7",
		"active_postcodes" : "3",
		"population" : null,
		"households" : null,
		"nearby_districts" : "AB12, AB11, AB10, AB9, AB1, AB25, AB24, AB23, AB15, AB22",
		"uk_region" : "Scotland",
		"post_town" : "Aberdeen"
	},
	{
		"postcode" : "AL1",
		"latitude" : "51.7486",
		"longitude" : "-0.319416",
		"easting" : "516114",
		"northing" : "206881",
		"grid_reference" : "TL161068",
		"town_area" : "St Albans",
		"region" : "St Albans",
		"postcodes" : "2030",
		"active_postcodes" : "1220",
		"population" : "36291",
		"households" : "15082",
		"nearby_districts" : "AL2, AL4, WD7, AL3, AL5, AL10, AL9, WD6, WD25, WD2",
		"uk_region" : "East of England",
		"post_town" : "St. Albans"
	},
	{
		"postcode" : "AL2",
		"latitude" : "51.7223",
		"longitude" : "-0.331027",
		"easting" : "515380",
		"northing" : "203938",
		"grid_reference" : "TL153039",
		"town_area" : "St Albans, Bricket Wood, Colney Street, Frogmore, London Colney, Napsbury, Park Street, Potters Crouch, Chiswell Green",
		"region" : "St Albans",
		"postcodes" : "985",
		"active_postcodes" : "731",
		"population" : "23335",
		"households" : "9380",
		"nearby_districts" : "AL1, WD7, AL4, AL3, WD25, WD2, WD5, WD23, AL5, WD6",
		"uk_region" : "East of England",
		"post_town" : "St. Albans"
	},
	{
		"postcode" : "AL3",
		"latitude" : "51.7754",
		"longitude" : "-0.366647",
		"easting" : "512787",
		"northing" : "209787",
		"grid_reference" : "TL127097",
		"town_area" : "St Albans, Childwickbury, Flamstead, Gorhambury, Markyate, Porters Wood, Redbourn, Sandridge",
		"region" : "St Albans",
		"postcodes" : "1309",
		"active_postcodes" : "955",
		"population" : "28025",
		"households" : "11197",
		"nearby_districts" : "AL5, AL1, AL4, AL2, HP2, WD25, WD2, WD5, WD23, HP1",
		"uk_region" : "East of England",
		"post_town" : "St. Albans"
	},
	{
		"postcode" : "AL4",
		"latitude" : "51.7713",
		"longitude" : "-0.295905",
		"easting" : "517678",
		"northing" : "209443",
		"grid_reference" : "TL176094",
		"town_area" : "St Albans, Colney Heath, London Colney, Jersey Farm, Marshalswick, Oaklands, Sandridge, Smallford, Tyttenhanger, Wheathampstead",
		"region" : "St Albans",
		"postcodes" : "1059",
		"active_postcodes" : "786",
		"population" : "27221",
		"households" : "10792",
		"nearby_districts" : "AL1, AL3, AL10, AL2, AL5, WD7, AL8, AL9, AL7, WD6",
		"uk_region" : "East of England",
		"post_town" : "St. Albans"
	},
	{
		"postcode" : "AL5",
		"latitude" : "51.8146",
		"longitude" : "-0.351484",
		"easting" : "513735",
		"northing" : "214170",
		"grid_reference" : "TL137141",
		"town_area" : "Harpenden",
		"region" : "St Albans",
		"postcodes" : "1553",
		"active_postcodes" : "1058",
		"population" : "30486",
		"households" : "11672",
		"nearby_districts" : "AL3, AL1, AL4, AL2, LU2, LU1, AL8, HP2, AL6, WD7",
		"uk_region" : "East of England",
		"post_town" : "Harpenden"
	},
	{
		"postcode" : "AL6",
		"latitude" : "51.8299",
		"longitude" : "-0.199363",
		"easting" : "524178",
		"northing" : "216120",
		"grid_reference" : "TL241161",
		"town_area" : "Welwyn, Ayot St Peter, Ayot St Lawrence, Digswell, Rabley Heath, Tewin",
		"region" : "Welwyn Hatfield",
		"postcodes" : "657",
		"active_postcodes" : "506",
		"population" : "11181",
		"households" : "4502",
		"nearby_districts" : "AL8, AL7, SG3, SG1, AL9, SG2, AL10, SG14, EN6, AL4",
		"uk_region" : "East of England",
		"post_town" : "Welwyn"
	},
	{
		"postcode" : "AL7",
		"latitude" : "51.7988",
		"longitude" : "-0.189506",
		"easting" : "524943",
		"northing" : "212678",
		"grid_reference" : "TL249126",
		"town_area" : "Welwyn Garden City",
		"region" : "Welwyn Hatfield",
		"postcodes" : "1477",
		"active_postcodes" : "898",
		"population" : "33974",
		"households" : "14170",
		"nearby_districts" : "AL8, AL6, AL9, SG3, AL10, SG14, EN6, SG2, SG1, SG13",
		"uk_region" : "East of England",
		"post_town" : "Welwyn, Welwyn Garden City"
	},
	{
		"postcode" : "AL8",
		"latitude" : "51.8034",
		"longitude" : "-0.210333",
		"easting" : "523495",
		"northing" : "213154",
		"grid_reference" : "TL234131",
		"town_area" : "Welwyn Garden City, Lemsford",
		"region" : "Welwyn Hatfield",
		"postcodes" : "600",
		"active_postcodes" : "426",
		"population" : "13366",
		"households" : "5648",
		"nearby_districts" : "AL7, AL6, AL10, AL9, SG3, AL4, SG1, SG14, SG2, EN6",
		"uk_region" : "East of England",
		"post_town" : "Welwyn Garden City"
	},
	{
		"postcode" : "AL9",
		"latitude" : "51.7469",
		"longitude" : "-0.20169",
		"easting" : "524246",
		"northing" : "206885",
		"grid_reference" : "TL242068",
		"town_area" : "Hatfield, Brookmans Park, Essendon, North Mymms",
		"region" : "Welwyn Hatfield",
		"postcodes" : "618",
		"active_postcodes" : "429",
		"population" : "10641",
		"households" : "4342",
		"nearby_districts" : "AL10, AL7, AL8, EN6, AL6, EN5, AL4, AL1, SG3, EN4",
		"uk_region" : "East of England",
		"post_town" : "Hatfield"
	},
	{
		"postcode" : "AL10",
		"latitude" : "51.7609",
		"longitude" : "-0.231142",
		"easting" : "522175",
		"northing" : "208393",
		"grid_reference" : "TL221083",
		"town_area" : "Hatfield",
		"region" : "Welwyn Hatfield",
		"postcodes" : "1207",
		"active_postcodes" : "786",
		"population" : "35391",
		"households" : "12424",
		"nearby_districts" : "AL9, AL8, AL4, AL7, AL1, AL6, EN6, AL2, SG3, WD6",
		"uk_region" : "East of England",
		"post_town" : "Hatfield"
	},
	{
		"postcode" : "B1",
		"latitude" : "52.4796",
		"longitude" : "-1.90782",
		"easting" : "406358",
		"northing" : "286857",
		"grid_reference" : "SP063868",
		"town_area" : "Birmingham City Centre, Ladywood",
		"region" : "Birmingham ",
		"postcodes" : "740",
		"active_postcodes" : "320",
		"population" : "8514",
		"households" : "4526",
		"nearby_districts" : "B3, B2, B4, B19, B5, B18, B15, B16, B99, B12",
		"uk_region" : "West Midlands",
		"post_town" : "Birmingham"
	},
	{
		"postcode" : "B2",
		"latitude" : "52.4863",
		"longitude" : "-1.89732",
		"easting" : "407070",
		"northing" : "287603",
		"grid_reference" : "SP070876",
		"town_area" : "Birmingham City Centre, Ladywood",
		"region" : "Birmingham ",
		"postcodes" : "860",
		"active_postcodes" : "327",
		"population" : "655",
		"households" : "473",
		"nearby_districts" : "B4, B3, B99, B5, B1, B19, B6, B18, B7, B12",
		"uk_region" : "West Midlands",
		"post_town" : "Birmingham"
	},
	{
		"postcode" : "B3",
		"latitude" : "52.4823",
		"longitude" : "-1.90294",
		"easting" : "406689",
		"northing" : "287157",
		"grid_reference" : "SP066871",
		"town_area" : "Birmingham City Centre, Ladywood",
		"region" : "Birmingham ",
		"postcodes" : "713",
		"active_postcodes" : "199",
		"population" : "2226",
		"households" : "1406",
		"nearby_districts" : "B1, B2, B4, B5, B19, B99, B18, B15, B6, B16",
		"uk_region" : "West Midlands",
		"post_town" : "Birmingham"
	},
	{
		"postcode" : "B4",
		"latitude" : "52.4839",
		"longitude" : "-1.89367",
		"easting" : "407318",
		"northing" : "287336",
		"grid_reference" : "SP073873",
		"town_area" : "Birmingham City Centre, Ladywood",
		"region" : "Birmingham ",
		"postcodes" : "485",
		"active_postcodes" : "213",
		"population" : "4337",
		"households" : "465",
		"nearby_districts" : "B2, B3, B99, B5, B1, B19, B6, B7, B12, B18",
		"uk_region" : "West Midlands",
		"post_town" : "Birmingham"
	},
	{
		"postcode" : "B5",
		"latitude" : "52.4721",
		"longitude" : "-1.89685",
		"easting" : "407104",
		"northing" : "286023",
		"grid_reference" : "SP071860",
		"town_area" : "Digbeth, Highgate, Lee Bank",
		"region" : "Birmingham",
		"postcodes" : "915",
		"active_postcodes" : "424",
		"population" : "12156",
		"households" : "5139",
		"nearby_districts" : "B2, B4, B3, B1, B12, B99, B15, B19, B16, B6",
		"uk_region" : "West Midlands",
		"post_town" : "Birmingham"
	},
	{
		"postcode" : "B6",
		"latitude" : "52.5024",
		"longitude" : "-1.88694",
		"easting" : "407772",
		"northing" : "289395",
		"grid_reference" : "SP077893",
		"town_area" : "Aston",
		"region" : "Birmingham",
		"postcodes" : "877",
		"active_postcodes" : "422",
		"population" : "19507",
		"households" : "5886",
		"nearby_districts" : "B99, B7, B19, B4, B2, B3, B5, B20, B1, B44",
		"uk_region" : "West Midlands",
		"post_town" : "Birmingham"
	},
	{
		"postcode" : "B7",
		"latitude" : "52.4938",
		"longitude" : "-1.87438",
		"easting" : "408626",
		"northing" : "288440",
		"grid_reference" : "SP086884",
		"town_area" : "Nechells",
		"region" : "Birmingham",
		"postcodes" : "441",
		"active_postcodes" : "275",
		"population" : "8554",
		"households" : "3444",
		"nearby_districts" : "B6, B99, B4, B2, B19, B8, B9, B3, B12, B5",
		"uk_region" : "West Midlands",
		"post_town" : "Birmingham"
	},
	{
		"postcode" : "B8",
		"latitude" : "52.49",
		"longitude" : "-1.84278",
		"easting" : "410772",
		"northing" : "288021",
		"grid_reference" : "SP107880",
		"town_area" : "Washwood Heath, Ward End, Saltley",
		"region" : "Birmingham",
		"postcodes" : "779",
		"active_postcodes" : "578",
		"population" : "42278",
		"households" : "11987",
		"nearby_districts" : "B9, B10, B7, B24, B25, B23, B11, B6, B4, B99",
		"uk_region" : "West Midlands",
		"post_town" : "Birmingham"
	},
	{
		"postcode" : "B9",
		"latitude" : "52.4781",
		"longitude" : "-1.8528",
		"easting" : "410095",
		"northing" : "286696",
		"grid_reference" : "SP100866",
		"town_area" : "Bordesley Green",
		"region" : "Birmingham",
		"postcodes" : "809",
		"active_postcodes" : "407",
		"population" : "24915",
		"households" : "7548",
		"nearby_districts" : "B10, B8, B11, B7, B25, B4, B12, B5, B23, B2",
		"uk_region" : "West Midlands",
		"post_town" : "Birmingham"
	},
	{
		"postcode" : "B10",
		"latitude" : "52.4701",
		"longitude" : "-1.85329",
		"easting" : "410063",
		"northing" : "285806",
		"grid_reference" : "SP100858",
		"town_area" : "Small Heath",
		"region" : "Birmingham",
		"postcodes" : "457",
		"active_postcodes" : "316",
		"population" : "26004",
		"households" : "7108",
		"nearby_districts" : "B9, B11, B8, B25, B12, B7, B5, B28, B27, B4",
		"uk_region" : "West Midlands",
		"post_town" : "Birmingham"
	},
	{
		"postcode" : "B11",
		"latitude" : "52.4554",
		"longitude" : "-1.85977",
		"easting" : "409626",
		"northing" : "284170",
		"grid_reference" : "SP096841",
		"town_area" : "Sparkhill, Tyseley",
		"region" : "Birmingham",
		"postcodes" : "1033",
		"active_postcodes" : "612",
		"population" : "44391",
		"households" : "12602",
		"nearby_districts" : "B10, B12, B9, B25, B13, B28, B27, B8, B7, B5",
		"uk_region" : "West Midlands",
		"post_town" : "Birmingham"
	},
	{
		"postcode" : "B12",
		"latitude" : "52.4611",
		"longitude" : "-1.88268",
		"easting" : "408068",
		"northing" : "284801",
		"grid_reference" : "SP080848",
		"town_area" : "Balsall Heath, Sparkbrook, Highgate",
		"region" : "Birmingham",
		"postcodes" : "765",
		"active_postcodes" : "483",
		"population" : "20548",
		"households" : "6649",
		"nearby_districts" : "B5, B13, B11, B4, B10, B2, B7, B3, B1, B6",
		"uk_region" : "West Midlands",
		"post_town" : "Birmingham"
	},
	{
		"postcode" : "B13",
		"latitude" : "52.4348",
		"longitude" : "-1.88285",
		"easting" : "408061",
		"northing" : "281876",
		"grid_reference" : "SP080818",
		"town_area" : "Moseley, Billesley",
		"region" : "Birmingham",
		"postcodes" : "1130",
		"active_postcodes" : "662",
		"population" : "37672",
		"households" : "15392",
		"nearby_districts" : "B14, B12, B11, B28, B47, B5, B30, B4, B10, B29",
		"uk_region" : "West Midlands",
		"post_town" : "Birmingham"
	},
	{
		"postcode" : "B14",
		"latitude" : "52.4188",
		"longitude" : "-1.89029",
		"easting" : "407558",
		"northing" : "280095",
		"grid_reference" : "SP075800",
		"town_area" : "Kings Heath, Yardley Wood, Brandwood, Druids Heath, Warstock",
		"region" : "Birmingham",
		"postcodes" : "1038",
		"active_postcodes" : "773",
		"population" : "43099",
		"households" : "18063",
		"nearby_districts" : "B13, B47, B30, B22, B12, B28, B5, B38, B11, B4",
		"uk_region" : "West Midlands",
		"post_town" : "Birmingham"
	},
	{
		"postcode" : "B15",
		"latitude" : "52.468",
		"longitude" : "-1.9234",
		"easting" : "405301",
		"northing" : "285565",
		"grid_reference" : "SP053855",
		"town_area" : "Edgbaston, Lee Bank",
		"region" : "Birmingham",
		"postcodes" : "854",
		"active_postcodes" : "490",
		"population" : "17872",
		"households" : "6220",
		"nearby_districts" : "B16, B18, B1, B5, B3, B2, B4, B19, B17, B12",
		"uk_region" : "West Midlands",
		"post_town" : "Birmingham"
	},
	{
		"postcode" : "B16",
		"latitude" : "52.4754",
		"longitude" : "-1.93217",
		"easting" : "404704",
		"northing" : "286388",
		"grid_reference" : "SP047863",
		"town_area" : "Edgbaston, Ladywood",
		"region" : "Birmingham",
		"postcodes" : "1185",
		"active_postcodes" : "507",
		"population" : "23619",
		"households" : "10305",
		"nearby_districts" : "B15, B18, B1, B21, B3, B5, B17, B2, B4, B19",
		"uk_region" : "West Midlands",
		"post_town" : "Birmingham"
	},
	{
		"postcode" : "B17",
		"latitude" : "52.4615",
		"longitude" : "-1.96293",
		"easting" : "402616",
		"northing" : "284840",
		"grid_reference" : "SP026848",
		"town_area" : "Harborne",
		"region" : "Birmingham",
		"postcodes" : "799",
		"active_postcodes" : "555",
		"population" : "25625",
		"households" : "10999",
		"nearby_districts" : "B66, B67, B29, B32, B16, B15, B68, B31, B21, B18",
		"uk_region" : "West Midlands",
		"post_town" : "Birmingham"
	},
	{
		"postcode" : "B18",
		"latitude" : "52.4915",
		"longitude" : "-1.92215",
		"easting" : "405383",
		"northing" : "288179",
		"grid_reference" : "SP053881",
		"town_area" : "Winson Green, Hockley",
		"region" : "Birmingham",
		"postcodes" : "958",
		"active_postcodes" : "460",
		"population" : "16739",
		"households" : "6389",
		"nearby_districts" : "B19, B15, B20, B16, B1, B21, B3, B2, B99, B4",
		"uk_region" : "West Midlands",
		"post_town" : "Birmingham"
	},
	{
		"postcode" : "B19",
		"latitude" : "52.4963",
		"longitude" : "-1.90607",
		"easting" : "406474",
		"northing" : "288714",
		"grid_reference" : "SP064887",
		"town_area" : "Lozells, Newtown, Birchfield",
		"region" : "Birmingham",
		"postcodes" : "687",
		"active_postcodes" : "450",
		"population" : "20204",
		"households" : "6606",
		"nearby_districts" : "B99, B3, B1, B2, B18, B4, B6, B20, B5, B7",
		"uk_region" : "West Midlands",
		"post_town" : "Birmingham"
	},
	{
		"postcode" : "B20",
		"latitude" : "52.5134",
		"longitude" : "-1.91879",
		"easting" : "405608",
		"northing" : "290616",
		"grid_reference" : "SP056906",
		"town_area" : "Birchfield, Handsworth Wood Perry Barr",
		"region" : "Birmingham",
		"postcodes" : "755",
		"active_postcodes" : "533",
		"population" : "34752",
		"households" : "11191",
		"nearby_districts" : "B18, B21, B19, B42, B99, B6, B43, B1, B3, B2",
		"uk_region" : "West Midlands",
		"post_town" : "Birmingham"
	},
	{
		"postcode" : "B21",
		"latitude" : "52.5051",
		"longitude" : "-1.93623",
		"easting" : "404426",
		"northing" : "289691",
		"grid_reference" : "SP044896",
		"town_area" : "Handsworth",
		"region" : "Birmingham",
		"postcodes" : "787",
		"active_postcodes" : "437",
		"population" : "29626",
		"households" : "9638",
		"nearby_districts" : "B20, B18, B16, B19, B66, B15, B43, B99, B6, B1",
		"uk_region" : "West Midlands",
		"post_town" : "Birmingham"
	},
	{
		"postcode" : "B22",
		"latitude" : "52.4117",
		"longitude" : "-1.92882",
		"easting" : "404939",
		"northing" : "279302",
		"grid_reference" : "SP049793",
		"town_area" : "Kings Norton",
		"region" : "Birmingham",
		"postcodes" : "10",
		"active_postcodes" : "0",
		"population" : null,
		"households" : null,
		"nearby_districts" : "B30, B38, B29, B14, B31, B15, B16, B13, B47, B48",
		"uk_region" : "West Midlands",
		"post_town" : null
	},
	{
		"postcode" : "B23",
		"latitude" : "52.5276",
		"longitude" : "-1.85142",
		"easting" : "410177",
		"northing" : "292202",
		"grid_reference" : "SP101922",
		"town_area" : "Erdington, Short Heath",
		"region" : "Birmingham",
		"postcodes" : "1267",
		"active_postcodes" : "826",
		"population" : "42858",
		"households" : "18745",
		"nearby_districts" : "B24, B73, B8, B9, B44, B72, B7, B42, B10, B74",
		"uk_region" : "West Midlands",
		"post_town" : "Birmingham"
	},
	{
		"postcode" : "B24",
		"latitude" : "52.5197",
		"longitude" : "-1.8288",
		"easting" : "411714",
		"northing" : "291327",
		"grid_reference" : "SP117913",
		"town_area" : "Erdington, Tyburn",
		"region" : "Birmingham",
		"postcodes" : "764",
		"active_postcodes" : "579",
		"population" : "28280",
		"households" : "11680",
		"nearby_districts" : "B23, B72, B35, B8, B73, B25, B36, B76, B9, B34",
		"uk_region" : "West Midlands",
		"post_town" : "Birmingham"
	},
	{
		"postcode" : "B25",
		"latitude" : "52.461",
		"longitude" : "-1.82677",
		"easting" : "411867",
		"northing" : "284798",
		"grid_reference" : "SP118847",
		"town_area" : "Yardley",
		"region" : "Birmingham",
		"postcodes" : "557",
		"active_postcodes" : "274",
		"population" : "15861",
		"households" : "5983",
		"nearby_districts" : "B27, B26, B10, B11, B9, B8, B28, B12, B33, B24",
		"uk_region" : "West Midlands",
		"post_town" : "Birmingham"
	},
	{
		"postcode" : "B26",
		"latitude" : "52.4607",
		"longitude" : "-1.79267",
		"easting" : "414184",
		"northing" : "284771",
		"grid_reference" : "SP141847",
		"town_area" : "Sheldon, Yardley",
		"region" : "Birmingham",
		"postcodes" : "751",
		"active_postcodes" : "574",
		"population" : "32458",
		"households" : "13394",
		"nearby_districts" : "B33, B25, B92, B27, B34, B36, B91, B35, B37, B10",
		"uk_region" : "West Midlands",
		"post_town" : "Birmingham"
	},
	{
		"postcode" : "B27",
		"latitude" : "52.4458",
		"longitude" : "-1.82378",
		"easting" : "412074",
		"northing" : "283108",
		"grid_reference" : "SP120831",
		"town_area" : "Acocks Green",
		"region" : "Birmingham",
		"postcodes" : "544",
		"active_postcodes" : "431",
		"population" : "25331",
		"households" : "10206",
		"nearby_districts" : "B25, B28, B11, B26, B90, B10, B92, B9, B8, B13",
		"uk_region" : "West Midlands",
		"post_town" : "Birmingham"
	},
	{
		"postcode" : "B28",
		"latitude" : "52.4281",
		"longitude" : "-1.84313",
		"easting" : "410763",
		"northing" : "281136",
		"grid_reference" : "SP107811",
		"town_area" : "Hall Green",
		"region" : "Birmingham",
		"postcodes" : "864",
		"active_postcodes" : "607",
		"population" : "30345",
		"households" : "10982",
		"nearby_districts" : "B27, B11, B90, B13, B25, B10, B14, B9, B8, B12",
		"uk_region" : "West Midlands",
		"post_town" : "Birmingham"
	},
	{
		"postcode" : "B29",
		"latitude" : "52.4378",
		"longitude" : "-1.94526",
		"easting" : "403818",
		"northing" : "282205",
		"grid_reference" : "SP038822",
		"town_area" : "Selly Oak, Bournbrook, Selly Park, Weoley Castle, California",
		"region" : "Birmingham",
		"postcodes" : "1119",
		"active_postcodes" : "804",
		"population" : "42615",
		"households" : "15306",
		"nearby_districts" : "B30, B17, B22, B38, B16, B15, B31, B32, B13, B14",
		"uk_region" : "West Midlands",
		"post_town" : "Birmingham"
	},
	{
		"postcode" : "B30",
		"latitude" : "52.4211",
		"longitude" : "-1.92812",
		"easting" : "404985",
		"northing" : "280348",
		"grid_reference" : "SP049803",
		"town_area" : "Bournville, Cotteridge, Stirchley",
		"region" : "Birmingham",
		"postcodes" : "903",
		"active_postcodes" : "608",
		"population" : "29541",
		"households" : "12757",
		"nearby_districts" : "B22, B38, B29, B14, B15, B31, B16, B13, B17, B18",
		"uk_region" : "West Midlands",
		"post_town" : "Birmingham"
	},
	{
		"postcode" : "B31",
		"latitude" : "52.4091",
		"longitude" : "-1.97343",
		"easting" : "401904",
		"northing" : "279011",
		"grid_reference" : "SP019790",
		"town_area" : "Northfield",
		"region" : "Birmingham",
		"postcodes" : "1501",
		"active_postcodes" : "1161",
		"population" : "53794",
		"households" : "22747",
		"nearby_districts" : "B22, B38, B45, B29, B30, B17, B32, B48, B67, B66",
		"uk_region" : "West Midlands",
		"post_town" : "Birmingham"
	},
	{
		"postcode" : "B32",
		"latitude" : "52.4513",
		"longitude" : "-1.99453",
		"easting" : "400469",
		"northing" : "283705",
		"grid_reference" : "SP004837",
		"town_area" : "Woodgate, Bartley Green, Quinton, California",
		"region" : "Birmingham",
		"postcodes" : "1135",
		"active_postcodes" : "757",
		"population" : "38357",
		"households" : "16209",
		"nearby_districts" : "B68, B17, B62, B67, B29, B31, B66, B63, B45, B70",
		"uk_region" : "West Midlands",
		"post_town" : "Birmingham"
	},
	{
		"postcode" : "B33",
		"latitude" : "52.4809",
		"longitude" : "-1.78798",
		"easting" : "414496",
		"northing" : "287018",
		"grid_reference" : "SP144870",
		"town_area" : "Kitts Green, Stechford",
		"region" : "Birmingham",
		"postcodes" : "941",
		"active_postcodes" : "690",
		"population" : "34483",
		"households" : "13699",
		"nearby_districts" : "B34, B26, B36, B35, B37, B25, B92, B8, B76, B9",
		"uk_region" : "West Midlands",
		"post_town" : "Birmingham"
	},
	{
		"postcode" : "B34",
		"latitude" : "52.4957",
		"longitude" : "-1.78168",
		"easting" : "414919",
		"northing" : "288666",
		"grid_reference" : "SP149886",
		"town_area" : "Shard End, Buckland End",
		"region" : "Birmingham",
		"postcodes" : "384",
		"active_postcodes" : "326",
		"population" : "18941",
		"households" : "8112",
		"nearby_districts" : "B36, B33, B35, B26, B76, B37, B8, B92, B24, B25",
		"uk_region" : "West Midlands",
		"post_town" : "Birmingham"
	},
	{
		"postcode" : "B35",
		"latitude" : "52.5171",
		"longitude" : "-1.78992",
		"easting" : "414353",
		"northing" : "291045",
		"grid_reference" : "SP143910",
		"town_area" : "Castle Vale",
		"region" : "Birmingham",
		"postcodes" : "455",
		"active_postcodes" : "291",
		"population" : "9931",
		"households" : "4223",
		"nearby_districts" : "B36, B76, B34, B33, B24, B26, B72, B23, B8, B75",
		"uk_region" : "West Midlands",
		"post_town" : "Birmingham"
	},
	{
		"postcode" : "B36",
		"latitude" : "52.5045",
		"longitude" : "-1.78012",
		"easting" : "415022",
		"northing" : "289645",
		"grid_reference" : "SP150896",
		"town_area" : "Castle Bromwich, Smith's Wood",
		"region" : "Solihull",
		"postcodes" : "719",
		"active_postcodes" : "576",
		"population" : "35132",
		"households" : "13822",
		"nearby_districts" : "B34, B35, B33, B76, B26, B24, B37, B92, B8, B46",
		"uk_region" : "West Midlands",
		"post_town" : "Birmingham"
	},
	{
		"postcode" : "B37",
		"latitude" : "52.4784",
		"longitude" : "-1.74179",
		"easting" : "417634",
		"northing" : "286751",
		"grid_reference" : "SP176867",
		"town_area" : "Chelmsley Wood, Marston Green, Kingshurst, Fordbridge",
		"region" : "Solihull",
		"postcodes" : "939",
		"active_postcodes" : "734",
		"population" : "35875",
		"households" : "15370",
		"nearby_districts" : "B40, B33, B34, B36, B26, B46, B92, B35, B93, B25",
		"uk_region" : "West Midlands",
		"post_town" : "Birmingham"
	},
	{
		"postcode" : "B38",
		"latitude" : "52.4011",
		"longitude" : "-1.93391",
		"easting" : "404594",
		"northing" : "278123",
		"grid_reference" : "SP045781",
		"town_area" : "Kings Norton",
		"region" : "Birmingham",
		"postcodes" : "593",
		"active_postcodes" : "472",
		"population" : "21061",
		"households" : "8859",
		"nearby_districts" : "B22, B30, B31, B29, B14, B48, B47, B16, B15, B13",
		"uk_region" : "West Midlands",
		"post_town" : "Birmingham"
	},
	{
		"postcode" : "B40",
		"latitude" : "52.4583",
		"longitude" : "-1.7239",
		"easting" : "418858",
		"northing" : "284519",
		"grid_reference" : "SP188845",
		"town_area" : "National Exhibition Centre, Birmingham International Airport, Bickenhill",
		"region" : "Solihull",
		"postcodes" : "27",
		"active_postcodes" : "14",
		"population" : "9",
		"households" : "2",
		"nearby_districts" : "B37, B26, B92, B46, B33, B93, B34, B91, B36, B25",
		"uk_region" : "West Midlands",
		"post_town" : "Birmingham"
	},
	{
		"postcode" : "B42",
		"latitude" : "52.5345",
		"longitude" : "-1.90377",
		"easting" : "406625",
		"northing" : "292964",
		"grid_reference" : "SP066929",
		"town_area" : "Perry Barr, Great Barr, Hamstead",
		"region" : "Birmingham",
		"postcodes" : "803",
		"active_postcodes" : "437",
		"population" : "24262",
		"households" : "9307",
		"nearby_districts" : "B44, B20, B43, B19, B99, B6, B3, B2, B1, B23",
		"uk_region" : "West Midlands",
		"post_town" : "Birmingham"
	},
	{
		"postcode" : "B43",
		"latitude" : "52.5476",
		"longitude" : "-1.92824",
		"easting" : "404963",
		"northing" : "294419",
		"grid_reference" : "SP049944",
		"town_area" : "Great Barr, Hamstead, Pheasey",
		"region" : "Birmingham",
		"postcodes" : "669",
		"active_postcodes" : "547",
		"population" : "28796",
		"households" : "11795",
		"nearby_districts" : "B42, B20, B44, B21, WS5, B18, WS9, B19, B71, B16",
		"uk_region" : "West Midlands",
		"post_town" : "Birmingham"
	},
	{
		"postcode" : "B44",
		"latitude" : "52.545",
		"longitude" : "-1.88564",
		"easting" : "407852",
		"northing" : "294133",
		"grid_reference" : "SP078941",
		"town_area" : "Perry Barr, Kingstanding, Great Barr",
		"region" : "Birmingham",
		"postcodes" : "798",
		"active_postcodes" : "637",
		"population" : "37447",
		"households" : "15044",
		"nearby_districts" : "B42, B6, B43, B23, B99, B73, B7, B20, B74, B19",
		"uk_region" : "West Midlands",
		"post_town" : "Birmingham"
	},
	{
		"postcode" : "B45",
		"latitude" : "52.3885",
		"longitude" : "-2.00814",
		"easting" : "399543",
		"northing" : "276719",
		"grid_reference" : "SO995767",
		"town_area" : "Rednal, Rubery",
		"region" : "Birmingham",
		"postcodes" : "943",
		"active_postcodes" : "708",
		"population" : "30273",
		"households" : "12810",
		"nearby_districts" : "B31, B32, B38, B48, B68, B62, B22, B61, B60, B29",
		"uk_region" : "West Midlands",
		"post_town" : "Birmingham"
	},
	{
		"postcode" : "B46",
		"latitude" : "52.5071",
		"longitude" : "-1.69762",
		"easting" : "420621",
		"northing" : "289954",
		"grid_reference" : "SP206899",
		"town_area" : "Water Orton, Coleshill",
		"region" : "North Warwickshire",
		"postcodes" : "670",
		"active_postcodes" : "478",
		"population" : "12188",
		"households" : "5194",
		"nearby_districts" : "B37, B40, B36, B34, B35, B33, B78, B76, B77, B26",
		"uk_region" : "West Midlands",
		"post_town" : "Birmingham"
	},
	{
		"postcode" : "B47",
		"latitude" : "52.3887",
		"longitude" : "-1.88109",
		"easting" : "408190",
		"northing" : "276748",
		"grid_reference" : "SP081767",
		"town_area" : "Hollywood, Wythall",
		"region" : "Bromsgrove Worcestershire",
		"postcodes" : "295",
		"active_postcodes" : "242",
		"population" : "9560",
		"households" : "4132",
		"nearby_districts" : "B14, B13, B38, B90, B22, B12, B28, B30, B11, B5",
		"uk_region" : "West Midlands",
		"post_town" : "Birmingham"
	},
	{
		"postcode" : "B48",
		"latitude" : "52.3569",
		"longitude" : "-1.95163",
		"easting" : "403391",
		"northing" : "273205",
		"grid_reference" : "SP033732",
		"town_area" : "Alvechurch",
		"region" : "Bromsgrove Worcestershire",
		"postcodes" : "244",
		"active_postcodes" : "208",
		"population" : "5685",
		"households" : "2309",
		"nearby_districts" : "B97, B38, B31, B22, B29, B30, B45, B98, B47, B96",
		"uk_region" : "West Midlands",
		"post_town" : "Birmingham"
	},
	{
		"postcode" : "B49",
		"latitude" : "52.2174",
		"longitude" : "-1.86778",
		"easting" : "409130",
		"northing" : "257696",
		"grid_reference" : "SP091576",
		"town_area" : "Alcester",
		"region" : "Stratford-on-Avon",
		"postcodes" : "539",
		"active_postcodes" : "390",
		"population" : "10097",
		"households" : "4440",
		"nearby_districts" : "B50, B80, B96, B98, B95, B97, WR12, CV37, B47, WR11",
		"uk_region" : "West Midlands",
		"post_town" : "Alcester"
	},
	{
		"postcode" : "B50",
		"latitude" : "52.1696",
		"longitude" : "-1.85658",
		"easting" : "409906",
		"northing" : "252381",
		"grid_reference" : "SP099523",
		"town_area" : "Alcester",
		"region" : "Stratford-on-Avon",
		"postcodes" : "230",
		"active_postcodes" : "212",
		"population" : "5517",
		"households" : "2235",
		"nearby_districts" : "B49, WR12, WR11, B80, CV37, B96, GL55, B98, B95, B97",
		"uk_region" : "West Midlands",
		"post_town" : "Alcester"
	},
	{
		"postcode" : "B60",
		"latitude" : "52.3239",
		"longitude" : "-2.05051",
		"easting" : "396654",
		"northing" : "269535",
		"grid_reference" : "SO966695",
		"town_area" : "Bromsgrove",
		"region" : "Bromsgrove",
		"postcodes" : "1217",
		"active_postcodes" : "850",
		"population" : "27178",
		"households" : "11377",
		"nearby_districts" : "B61, B45, B97, B48, WR7, B63, B62, B98, B96, B31",
		"uk_region" : "West Midlands",
		"post_town" : "Bromsgrove"
	},
	{
		"postcode" : "B61",
		"latitude" : "52.3443",
		"longitude" : "-2.06789",
		"easting" : "395472",
		"northing" : "271805",
		"grid_reference" : "SO954718",
		"town_area" : "Bromsgrove",
		"region" : "Bromsgrove",
		"postcodes" : "872",
		"active_postcodes" : "743",
		"population" : "24316",
		"households" : "10046",
		"nearby_districts" : "B60, B45, B63, B48, B64, B62, DY9, WR7, B97, B31",
		"uk_region" : "West Midlands",
		"post_town" : "Bromsgrove"
	},
	{
		"postcode" : "B62",
		"latitude" : "52.46",
		"longitude" : "-2.03765",
		"easting" : "397539",
		"northing" : "284673",
		"grid_reference" : "SO975846",
		"town_area" : "Halesowen",
		"region" : "Dudley",
		"postcodes" : "956",
		"active_postcodes" : "579",
		"population" : "24112",
		"households" : "10054",
		"nearby_districts" : "B65, B63, B64, B32, B69, B68, B17, DY2, B67, DY4",
		"uk_region" : "West Midlands",
		"post_town" : "Halesowen"
	},
	{
		"postcode" : "B63",
		"latitude" : "52.4531",
		"longitude" : "-2.06743",
		"easting" : "395515",
		"northing" : "283907",
		"grid_reference" : "SO955839",
		"town_area" : "Halesowen",
		"region" : "Dudley",
		"postcodes" : "1023",
		"active_postcodes" : "784",
		"population" : "36590",
		"households" : "15599",
		"nearby_districts" : "B64, B62, B65, DY2, DY9, B32, DY5, DY1, DY4, B69",
		"uk_region" : "West Midlands",
		"post_town" : "Halesowen"
	},
	{
		"postcode" : "B64",
		"latitude" : "52.4725",
		"longitude" : "-2.06894",
		"easting" : "395414",
		"northing" : "286065",
		"grid_reference" : "SO954860",
		"town_area" : "Cradley Heath",
		"region" : "Sandwell",
		"postcodes" : "633",
		"active_postcodes" : "475",
		"population" : "16616",
		"households" : "6986",
		"nearby_districts" : "B63, B65, DY2, B62, DY5, DY1, DY4, B69, B68, DY9",
		"uk_region" : "West Midlands",
		"post_town" : "Cradley Heath"
	},
	{
		"postcode" : "B65",
		"latitude" : "52.4828",
		"longitude" : "-2.04342",
		"easting" : "397148",
		"northing" : "287210",
		"grid_reference" : "SO971872",
		"town_area" : "Rowley Regis",
		"region" : "Sandwell",
		"postcodes" : "646",
		"active_postcodes" : "518",
		"population" : "23581",
		"households" : "9730",
		"nearby_districts" : "B62, B64, B69, B68, B63, DY2, DY4, B67, B70, B32",
		"uk_region" : "West Midlands",
		"post_town" : "Rowley Regis"
	},
	{
		"postcode" : "B66",
		"latitude" : "52.4937",
		"longitude" : "-1.96585",
		"easting" : "402416",
		"northing" : "288421",
		"grid_reference" : "SP024884",
		"town_area" : "Smethwick, Bearwood",
		"region" : "Sandwell",
		"postcodes" : "953",
		"active_postcodes" : "568",
		"population" : "21491",
		"households" : "7363",
		"nearby_districts" : "B67, B17, B21, B18, B68, B16, B19, B70, B71, B20",
		"uk_region" : "West Midlands",
		"post_town" : "Smethwick"
	},
	{
		"postcode" : "B67",
		"latitude" : "52.488",
		"longitude" : "-1.97707",
		"easting" : "401654",
		"northing" : "287787",
		"grid_reference" : "SP016877",
		"town_area" : "Smethwick, Bearwood",
		"region" : "Sandwell",
		"postcodes" : "783",
		"active_postcodes" : "523",
		"population" : "29853",
		"households" : "11466",
		"nearby_districts" : "B66, B68, B17, B32, B70, B16, B21, B18, B71, B69",
		"uk_region" : "West Midlands",
		"post_town" : "Smethwick"
	},
	{
		"postcode" : "B68",
		"latitude" : "52.4801",
		"longitude" : "-2.0018",
		"easting" : "399975",
		"northing" : "286908",
		"grid_reference" : "SO999869",
		"town_area" : "Oldbury",
		"region" : "Sandwell",
		"postcodes" : "692",
		"active_postcodes" : "588",
		"population" : "30924",
		"households" : "12394",
		"nearby_districts" : "B67, B32, B70, B65, B69, B66, B62, B17, B71, B16",
		"uk_region" : "West Midlands",
		"post_town" : "Oldbury"
	},
	{
		"postcode" : "B69",
		"latitude" : "52.5029",
		"longitude" : "-2.02495",
		"easting" : "398403",
		"northing" : "289445",
		"grid_reference" : "SO984894",
		"town_area" : "Oldbury",
		"region" : "Sandwell",
		"postcodes" : "1119",
		"active_postcodes" : "729",
		"population" : "29011",
		"households" : "11505",
		"nearby_districts" : "B65, B70, B68, B62, DY4, WS10, B67, DY2, B71, B66",
		"uk_region" : "West Midlands",
		"post_town" : "Oldbury"
	},
	{
		"postcode" : "B70",
		"latitude" : "52.5198",
		"longitude" : "-2.00258",
		"easting" : "399922",
		"northing" : "291324",
		"grid_reference" : "SO999913",
		"town_area" : "West Bromwich",
		"region" : "Sandwell",
		"postcodes" : "1394",
		"active_postcodes" : "828",
		"population" : "27772",
		"households" : "10542",
		"nearby_districts" : "B71, B69, B68, B67, WS10, B66, DY4, WS2, B32, B65",
		"uk_region" : "West Midlands",
		"post_town" : "West Bromwich"
	},
	{
		"postcode" : "B71",
		"latitude" : "52.5348",
		"longitude" : "-1.99019",
		"easting" : "400762",
		"northing" : "292993",
		"grid_reference" : "SP007929",
		"town_area" : "West Bromwich",
		"region" : "Sandwell",
		"postcodes" : "795",
		"active_postcodes" : "687",
		"population" : "30934",
		"households" : "12543",
		"nearby_districts" : "B70, WS1, WS10, B67, WS5, B66, WS2, B68, B69, DY4",
		"uk_region" : "West Midlands",
		"post_town" : "West Bromwich"
	},
	{
		"postcode" : "B72",
		"latitude" : "52.5544",
		"longitude" : "-1.82356",
		"easting" : "412060",
		"northing" : "295188",
		"grid_reference" : "SP120951",
		"town_area" : "Sutton Coldfield town centre, Maney, Wylde Green",
		"region" : "Birmingham",
		"postcodes" : "376",
		"active_postcodes" : "240",
		"population" : "9660",
		"households" : "3951",
		"nearby_districts" : "B73, B75, B24, B76, B23, B74, B35, B44, B8, B36",
		"uk_region" : "West Midlands",
		"post_town" : "Sutton Coldfield"
	},
	{
		"postcode" : "B73",
		"latitude" : "52.5593",
		"longitude" : "-1.83761",
		"easting" : "411106",
		"northing" : "295731",
		"grid_reference" : "SP111957",
		"town_area" : "Boldmere, New Oscott, Wylde Green",
		"region" : "Birmingham",
		"postcodes" : "1023",
		"active_postcodes" : "537",
		"population" : "23071",
		"households" : "9628",
		"nearby_districts" : "B72, B74, B75, B23, B24, B44, B76, B8, B35, B42",
		"uk_region" : "West Midlands",
		"post_town" : "Sutton Coldfield"
	},
	{
		"postcode" : "B74",
		"latitude" : "52.5824",
		"longitude" : "-1.85721",
		"easting" : "409772",
		"northing" : "298297",
		"grid_reference" : "SP097982",
		"town_area" : "Four Oaks, Mere Green, Little Aston, Streetly",
		"region" : "Birmingham",
		"postcodes" : "974",
		"active_postcodes" : "759",
		"population" : "32012",
		"households" : "13302",
		"nearby_districts" : "B73, B75, B23, B72, B44, WS9, B24, B42, B76, B7",
		"uk_region" : "West Midlands",
		"post_town" : "Sutton Coldfield"
	},
	{
		"postcode" : "B75",
		"latitude" : "52.5777",
		"longitude" : "-1.81095",
		"easting" : "412908",
		"northing" : "297782",
		"grid_reference" : "SP129977",
		"town_area" : "Sutton Trinity, Falcon Lodge, Rectory",
		"region" : "Birmingham",
		"postcodes" : "846",
		"active_postcodes" : "655",
		"population" : "26863",
		"households" : "11019",
		"nearby_districts" : "B72, B73, B74, B76, B24, B35, B23, WS14, B36, B44",
		"uk_region" : "West Midlands",
		"post_town" : "Sutton Coldfield"
	},
	{
		"postcode" : "B76",
		"latitude" : "52.5448",
		"longitude" : "-1.78951",
		"easting" : "414372",
		"northing" : "294126",
		"grid_reference" : "SP143941",
		"town_area" : "Walmley",
		"region" : "Birmingham",
		"postcodes" : "1077",
		"active_postcodes" : "531",
		"population" : "21509",
		"households" : "9175",
		"nearby_districts" : "B35, B72, B36, B75, B34, B73, B24, B33, B23, B26",
		"uk_region" : "West Midlands",
		"post_town" : "Sutton Coldfield"
	},
	{
		"postcode" : "B77",
		"latitude" : "52.6204",
		"longitude" : "-1.67146",
		"easting" : "422339",
		"northing" : "302565",
		"grid_reference" : "SK223025",
		"town_area" : "Tamworth",
		"region" : "Tamworth",
		"postcodes" : "1462",
		"active_postcodes" : "1014",
		"population" : "57219",
		"households" : "22836",
		"nearby_districts" : "B78, B79, B46, CV9, B75, WS14, B76, DE13, B37, B40",
		"uk_region" : "West Midlands",
		"post_town" : "Tamworth"
	},
	{
		"postcode" : "B78",
		"latitude" : "52.6074",
		"longitude" : "-1.67616",
		"easting" : "422027",
		"northing" : "301118",
		"grid_reference" : "SK220011",
		"town_area" : "Tamworth",
		"region" : "Tamworth",
		"postcodes" : "754",
		"active_postcodes" : "650",
		"population" : "24227",
		"households" : "9885",
		"nearby_districts" : "B77, B79, B46, CV9, B75, B76, B37, B40, WS14, B72",
		"uk_region" : "West Midlands",
		"post_town" : "Tamworth"
	},
	{
		"postcode" : "B79",
		"latitude" : "52.6481",
		"longitude" : "-1.68125",
		"easting" : "421663",
		"northing" : "305644",
		"grid_reference" : "SK216056",
		"town_area" : "Tamworth",
		"region" : "Tamworth",
		"postcodes" : "885",
		"active_postcodes" : "704",
		"population" : "22302",
		"households" : "9745",
		"nearby_districts" : "B77, B78, WS14, B46, DE13, WS13, CV9, B75, DE14, DE12",
		"uk_region" : "West Midlands",
		"post_town" : "Tamworth"
	},
	{
		"postcode" : "B80",
		"latitude" : "52.2777",
		"longitude" : "-1.89704",
		"easting" : "407122",
		"northing" : "264400",
		"grid_reference" : "SP071643",
		"town_area" : "Studley",
		"region" : "Stratford-on-Avon",
		"postcodes" : "259",
		"active_postcodes" : "217",
		"population" : "7055",
		"households" : "2994",
		"nearby_districts" : "B98, B97, B96, B49, B95, B47, B48, B14, B50, B38",
		"uk_region" : "West Midlands",
		"post_town" : "Studley"
	},
	{
		"postcode" : "B90",
		"latitude" : "52.4007",
		"longitude" : "-1.82565",
		"easting" : "411959",
		"northing" : "278091",
		"grid_reference" : "SP119780",
		"town_area" : "Shirley, Wythall, Majors Green, Dickens Heath",
		"region" : "Solihull",
		"postcodes" : "1532",
		"active_postcodes" : "1088",
		"population" : "45652",
		"households" : "18910",
		"nearby_districts" : "B28, B27, B91, B25, B47, B94, B14, B92, B11, B13",
		"uk_region" : "West Midlands",
		"post_town" : "Solihull"
	},
	{
		"postcode" : "B91",
		"latitude" : "52.414",
		"longitude" : "-1.78079",
		"easting" : "415007",
		"northing" : "279578",
		"grid_reference" : "SP150795",
		"town_area" : "Olton, Solihull",
		"region" : "Solihull",
		"postcodes" : "1417",
		"active_postcodes" : "851",
		"population" : "33280",
		"households" : "13518",
		"nearby_districts" : "B92, B90, B26, B93, B94, B33, B27, B28, B34, B36",
		"uk_region" : "West Midlands",
		"post_town" : "Solihull"
	},
	{
		"postcode" : "B92",
		"latitude" : "52.4353",
		"longitude" : "-1.77345",
		"easting" : "415499",
		"northing" : "281949",
		"grid_reference" : "SP154819",
		"town_area" : "Olton, Solihull",
		"region" : "Solihull",
		"postcodes" : "915",
		"active_postcodes" : "733",
		"population" : "36119",
		"households" : "15211",
		"nearby_districts" : "B91, B26, B33, B27, B34, B40, B37, B36, B28, B25",
		"uk_region" : "West Midlands",
		"post_town" : "Solihull"
	},
	{
		"postcode" : "B93",
		"latitude" : "52.3832",
		"longitude" : "-1.74202",
		"easting" : "417656",
		"northing" : "276161",
		"grid_reference" : "SP176761",
		"town_area" : "Knowle, Dorridge",
		"region" : "Solihull",
		"postcodes" : "875",
		"active_postcodes" : "516",
		"population" : "19505",
		"households" : "7944",
		"nearby_districts" : "B91, B94, B92, B40, B37, B90, B26, B95, B33, B27",
		"uk_region" : "West Midlands",
		"post_town" : "Solihull"
	},
	{
		"postcode" : "B94",
		"latitude" : "52.3528",
		"longitude" : "-1.79147",
		"easting" : "414300",
		"northing" : "272768",
		"grid_reference" : "SP143727",
		"town_area" : "Olton, Solihull",
		"region" : "Solihull",
		"postcodes" : "425",
		"active_postcodes" : "341",
		"population" : "7298",
		"households" : "2979",
		"nearby_districts" : "B91, B95, B93, B90, B92, B26, B27, B47, B28, B33",
		"uk_region" : "West Midlands",
		"post_town" : "Solihull"
	},
	{
		"postcode" : "B95",
		"latitude" : "52.2873",
		"longitude" : "-1.78052",
		"easting" : "415068",
		"northing" : "265485",
		"grid_reference" : "SP150654",
		"town_area" : "Henley-in-Arden",
		"region" : "Stratford-on-Avon",
		"postcodes" : "419",
		"active_postcodes" : "323",
		"population" : "6000",
		"households" : "2771",
		"nearby_districts" : "B94, B80, B91, B93, B98, B92, B49, B90, CV37, B97",
		"uk_region" : "West Midlands",
		"post_town" : "Henley-in-Arden"
	},
	{
		"postcode" : "B96",
		"latitude" : "52.2548",
		"longitude" : "-1.95944",
		"easting" : "402866",
		"northing" : "261848",
		"grid_reference" : "SP028618",
		"town_area" : "Redditch",
		"region" : "Redditch",
		"postcodes" : "237",
		"active_postcodes" : "211",
		"population" : "4968",
		"households" : "2181",
		"nearby_districts" : "B97, B80, B98, B48, B49, B60, WR7, B31, B38, B45",
		"uk_region" : "West Midlands",
		"post_town" : "Redditch"
	},
	{
		"postcode" : "B97",
		"latitude" : "52.3036",
		"longitude" : "-1.9493",
		"easting" : "403554",
		"northing" : "267277",
		"grid_reference" : "SP035672",
		"town_area" : "Redditch",
		"region" : "Redditch",
		"postcodes" : "1312",
		"active_postcodes" : "798",
		"population" : "33402",
		"households" : "13653",
		"nearby_districts" : "B98, B48, B96, B80, B38, B60, B22, B31, B29, B30",
		"uk_region" : "West Midlands",
		"post_town" : "Redditch"
	},
	{
		"postcode" : "B98",
		"latitude" : "52.3037",
		"longitude" : "-1.91586",
		"easting" : "405834",
		"northing" : "267290",
		"grid_reference" : "SP058672",
		"town_area" : "Redditch",
		"region" : "Redditch",
		"postcodes" : "1132",
		"active_postcodes" : "820",
		"population" : "49783",
		"households" : "20137",
		"nearby_districts" : "B97, B80, B48, B96, B38, B47, B22, B30, B49, B14",
		"uk_region" : "West Midlands",
		"post_town" : "Redditch"
	},
	{
		"postcode" : "B99",
		"latitude" : "52.4959",
		"longitude" : "-1.89425",
		"easting" : "407277",
		"northing" : "288671",
		"grid_reference" : "SP072886",
		"town_area" : "Non-geographic",
		"region" : "Birmingham",
		"postcodes" : "59",
		"active_postcodes" : "48",
		"population" : null,
		"households" : null,
		"nearby_districts" : "B19, B4, B2, B6, B7, B3, B5, B1, B18, B20",
		"uk_region" : "West Midlands",
		"post_town" : "Birmingham"
	},
	{
		"postcode" : "BA1",
		"latitude" : "51.3888",
		"longitude" : "-2.36016",
		"easting" : "375035",
		"northing" : "165590",
		"grid_reference" : "ST750655",
		"town_area" : "Bath",
		"region" : "Bath and North East Somerset",
		"postcodes" : "2566",
		"active_postcodes" : "1552",
		"population" : "40612",
		"households" : "18710",
		"nearby_districts" : "BA2, BA15, BS31, BS30, BA11, SN13, BA3, BS15, BS37, BS17",
		"uk_region" : "South West",
		"post_town" : "Bath"
	},
	{
		"postcode" : "BA2",
		"latitude" : "51.362",
		"longitude" : "-2.37618",
		"easting" : "373905",
		"northing" : "162615",
		"grid_reference" : "ST739626",
		"town_area" : "Bath",
		"region" : "Bath and North East Somerset",
		"postcodes" : "2745",
		"active_postcodes" : "2208",
		"population" : "73927",
		"households" : "29525",
		"nearby_districts" : "BA1, BA15, BA3, BS31, BA11, BS30, BS39, BS15, BS18, BA14",
		"uk_region" : "South West",
		"post_town" : "Bath"
	},
	{
		"postcode" : "BA3",
		"latitude" : "51.2853",
		"longitude" : "-2.44967",
		"easting" : "368736",
		"northing" : "154114",
		"grid_reference" : "ST687541",
		"town_area" : "Radstock, Midsomer Norton, Holcombe, Coleford",
		"region" : "Bath and North East Somerset",
		"postcodes" : "1983",
		"active_postcodes" : "1282",
		"population" : "34598",
		"households" : "13970",
		"nearby_districts" : "BS39, BA2, BS31, BA11, BA10, BS30, BA1, BA4, BS15, BS18",
		"uk_region" : "South West",
		"post_town" : "Radstock"
	},
	{
		"postcode" : "BA4",
		"latitude" : "51.1746",
		"longitude" : "-2.53337",
		"easting" : "362810",
		"northing" : "141842",
		"grid_reference" : "ST628418",
		"town_area" : "Shepton Mallet",
		"region" : "Mendip",
		"postcodes" : "1015",
		"active_postcodes" : "834",
		"population" : "17781",
		"households" : "7448",
		"nearby_districts" : "BA7, BA10, BS39, BA5, BA3, BA6, BA9, BS18, DT9, BA16",
		"uk_region" : "South West",
		"post_town" : "Shepton Mallet"
	},
	{
		"postcode" : "BA5",
		"latitude" : "51.2116",
		"longitude" : "-2.65507",
		"easting" : "354339",
		"northing" : "146026",
		"grid_reference" : "ST543460",
		"town_area" : "Wells",
		"region" : "Mendip",
		"postcodes" : "1020",
		"active_postcodes" : "787",
		"population" : "17731",
		"households" : "7901",
		"nearby_districts" : "BA6, BA4, BA16, BS40, BS28, BS27, TA11, BS41, BS18, BS39",
		"uk_region" : "South West",
		"post_town" : "Wells"
	},
	{
		"postcode" : "BA6",
		"latitude" : "51.1433",
		"longitude" : "-2.70939",
		"easting" : "350471",
		"northing" : "138465",
		"grid_reference" : "ST504384",
		"town_area" : "Glastonbury",
		"region" : "Mendip",
		"postcodes" : "790",
		"active_postcodes" : "555",
		"population" : "12840",
		"households" : "5634",
		"nearby_districts" : "BA16, TA11, BA5, BS28, BS27, TA15, BA4, TA7, BS40, TA10",
		"uk_region" : "South West",
		"post_town" : "Glastonbury"
	},
	{
		"postcode" : "BA7",
		"latitude" : "51.0897",
		"longitude" : "-2.51929",
		"easting" : "363727",
		"northing" : "132393",
		"grid_reference" : "ST637323",
		"town_area" : "Castle Cary",
		"region" : "South Somerset",
		"postcodes" : "244",
		"active_postcodes" : "202",
		"population" : "3655",
		"households" : "1663",
		"nearby_districts" : "BA10, BA4, BA9, DT9, BA8, TA11, BA22, BA6, BS39, BA21",
		"uk_region" : "South West",
		"post_town" : "Castle Cary"
	},
	{
		"postcode" : "BA8",
		"latitude" : "51.0003",
		"longitude" : "-2.41107",
		"easting" : "371251",
		"northing" : "122404",
		"grid_reference" : "ST712224",
		"town_area" : "Templecombe",
		"region" : "South Somerset",
		"postcodes" : "237",
		"active_postcodes" : "212",
		"population" : "4165",
		"households" : "1793",
		"nearby_districts" : "BA9, DT10, BA10, SP8, DT9, BA7, SP7, BA22, BA21, DT2",
		"uk_region" : "South West",
		"post_town" : "Templecombe"
	},
	{
		"postcode" : "BA9",
		"latitude" : "51.0576",
		"longitude" : "-2.41024",
		"easting" : "371345",
		"northing" : "128775",
		"grid_reference" : "ST713287",
		"town_area" : "Wincanton",
		"region" : "South Somerset",
		"postcodes" : "481",
		"active_postcodes" : "373",
		"population" : "7201",
		"households" : "3173",
		"nearby_districts" : "BA8, BA10, BA7, SP8, DT10, DT9, BA4, BA11, BA3, SP7",
		"uk_region" : "South West",
		"post_town" : "Wincanton, Bruton"
	},
	{
		"postcode" : "BA10",
		"latitude" : "51.1123",
		"longitude" : "-2.44746",
		"easting" : "368773",
		"northing" : "134874",
		"grid_reference" : "ST687348",
		"town_area" : "Bruton",
		"region" : "South Somerset",
		"postcodes" : "201",
		"active_postcodes" : "179",
		"population" : "3843",
		"households" : "1414",
		"nearby_districts" : "BA9, BA7, BA4, BA8, BA3, SP8, DT9, BA11, DT10, BA6",
		"uk_region" : "South West",
		"post_town" : "Bruton"
	},
	{
		"postcode" : "BA11",
		"latitude" : "51.237",
		"longitude" : "-2.3264",
		"easting" : "377309",
		"northing" : "148697",
		"grid_reference" : "ST773486",
		"town_area" : "Frome",
		"region" : "Mendip",
		"postcodes" : "1486",
		"active_postcodes" : "1174",
		"population" : "32633",
		"households" : "13874",
		"nearby_districts" : "BA13, BA3, BA2, BA15, BA1, BA12, BA14, SP8, BA10, BA9",
		"uk_region" : "South West",
		"post_town" : "Frome"
	},
	{
		"postcode" : "BA12",
		"latitude" : "51.1748",
		"longitude" : "-2.18782",
		"easting" : "386966",
		"northing" : "141746",
		"grid_reference" : "ST869417",
		"town_area" : "Warminster",
		"region" : "Wiltshire",
		"postcodes" : "1402",
		"active_postcodes" : "1140",
		"population" : "28544",
		"households" : "12460",
		"nearby_districts" : "BA13, BA14, SP7, BA11, SP8, BA15, SN12, SP3, SN13, SN14",
		"uk_region" : "South West",
		"post_town" : "Warminster"
	},
	{
		"postcode" : "BA13",
		"latitude" : "51.263",
		"longitude" : "-2.18525",
		"easting" : "387171",
		"northing" : "151554",
		"grid_reference" : "ST871515",
		"town_area" : "Westbury",
		"region" : "Wiltshire",
		"postcodes" : "797",
		"active_postcodes" : "638",
		"population" : "20306",
		"households" : "8488",
		"nearby_districts" : "BA14, BA12, SN12, BA15, BA11, SN13, SN14, SP7, SN10, BA3",
		"uk_region" : "South West",
		"post_town" : "Westbury"
	},
	{
		"postcode" : "BA14",
		"latitude" : "51.319",
		"longitude" : "-2.2033",
		"easting" : "385929",
		"northing" : "157786",
		"grid_reference" : "ST859577",
		"town_area" : "Trowbridge",
		"region" : "Wiltshire",
		"postcodes" : "1907",
		"active_postcodes" : "1476",
		"population" : "48041",
		"households" : "20026",
		"nearby_districts" : "BA13, BA15, SN13, SN12, SN14, BA12, BA11, BA2, BA1, SN10",
		"uk_region" : "South West",
		"post_town" : "Trowbridge"
	},
	{
		"postcode" : "BA15",
		"latitude" : "51.3483",
		"longitude" : "-2.26208",
		"easting" : "381844",
		"northing" : "161057",
		"grid_reference" : "ST818610",
		"town_area" : "Bradford-on-Avon",
		"region" : "Wiltshire",
		"postcodes" : "653",
		"active_postcodes" : "471",
		"population" : "12995",
		"households" : "5820",
		"nearby_districts" : "BA14, BA2, SN13, BA1, SN12, BA13, BA11, SN14, GL9, BA12",
		"uk_region" : "South West",
		"post_town" : "Bradford-on-Avon"
	},
	{
		"postcode" : "BA16",
		"latitude" : "51.1265",
		"longitude" : "-2.74328",
		"easting" : "348082",
		"northing" : "136620",
		"grid_reference" : "ST480366",
		"town_area" : "Street",
		"region" : "Mendip",
		"postcodes" : "438",
		"active_postcodes" : "375",
		"population" : "13011",
		"households" : "5259",
		"nearby_districts" : "BA6, TA11, BS28, BA5, TA10, TA7, BS27, TA12, TA14, TA15",
		"uk_region" : "South West",
		"post_town" : "Street"
	},
	{
		"postcode" : "BA20",
		"latitude" : "50.939",
		"longitude" : "-2.64274",
		"easting" : "354935",
		"northing" : "115703",
		"grid_reference" : "ST549157",
		"town_area" : "Yeovil",
		"region" : "South Somerset",
		"postcodes" : "815",
		"active_postcodes" : "491",
		"population" : "11240",
		"households" : "4935",
		"nearby_districts" : "BA21, BA22, TA15, TA14, DT9, TA12, TA13, TA16, TA11, TA18",
		"uk_region" : "South West",
		"post_town" : "Yeovil"
	},
	{
		"postcode" : "BA21",
		"latitude" : "50.9511",
		"longitude" : "-2.63392",
		"easting" : "355567",
		"northing" : "117043",
		"grid_reference" : "ST555170",
		"town_area" : "Yeovil",
		"region" : "South Somerset",
		"postcodes" : "901",
		"active_postcodes" : "773",
		"population" : "33314",
		"households" : "14210",
		"nearby_districts" : "BA20, BA22, TA15, TA14, DT9, TA12, TA13, TA11, TA16, TA18",
		"uk_region" : "South West",
		"post_town" : "Yeovil"
	},
	{
		"postcode" : "BA22",
		"latitude" : "50.9691",
		"longitude" : "-2.63815",
		"easting" : "355287",
		"northing" : "119048",
		"grid_reference" : "ST552190",
		"town_area" : "Yeovil",
		"region" : "South Somerset",
		"postcodes" : "906",
		"active_postcodes" : "801",
		"population" : "18102",
		"households" : "7227",
		"nearby_districts" : "BA21, BA20, TA15, TA14, TA12, DT9, TA11, TA13, TA16, TA18",
		"uk_region" : "South West",
		"post_town" : "Yeovil"
	},
	{
		"postcode" : "BB0",
		"latitude" : "53.7535",
		"longitude" : "-2.46423",
		"easting" : "369487",
		"northing" : "428671",
		"grid_reference" : "SD694286",
		"town_area" : "Blackburn",
		"region" : "Blackburn with Darwen",
		"postcodes" : "1",
		"active_postcodes" : "0",
		"population" : null,
		"households" : null,
		"nearby_districts" : "BB1, BB2, BB3, BB5, BB6, BL7, BL1, BB7, BL3, BL11",
		"uk_region" : "North West",
		"post_town" : null
	},
	{
		"postcode" : "BB1",
		"latitude" : "53.7553",
		"longitude" : "-2.46577",
		"easting" : "369387",
		"northing" : "428871",
		"grid_reference" : "SD693288",
		"town_area" : "Blackburn, Bank Hey, Belthorn, Blackamoor, Clayton-le-Dale, Guide, Knuzden, Mellor, Ramsgreave, Rishton, Salesbury, Shadsworth, Sunnybower, Whitebirk, Wilpshire",
		"region" : "Blackburn with Darwen",
		"postcodes" : "1929",
		"active_postcodes" : "1306",
		"population" : "66805",
		"households" : "24188",
		"nearby_districts" : "BB0, BB2, BB3, BB5, BB6, BL7, BL1, BB7, PR0, BL3",
		"uk_region" : "North West",
		"post_town" : "Blackburn"
	},
	{
		"postcode" : "BB2",
		"latitude" : "53.7416",
		"longitude" : "-2.49802",
		"easting" : "367250",
		"northing" : "427362",
		"grid_reference" : "SD672273",
		"town_area" : "Blackburn, Beardwood, Balderstone, Cherry Tree, Feniscowles, Mellor, Mellor Brook, Mill Hill, Pleasington, Witton, Holly Tree and Griffin",
		"region" : "Blackburn with Darwen",
		"postcodes" : "2161",
		"active_postcodes" : "1411",
		"population" : "59842",
		"households" : "24112",
		"nearby_districts" : "BB0, BB1, BB3, BB5, BB6, BL7, BL6, PR6, PR0, BL5",
		"uk_region" : "North West",
		"post_town" : "Blackburn"
	},
	{
		"postcode" : "BB3",
		"latitude" : "53.6977",
		"longitude" : "-2.46592",
		"easting" : "369335",
		"northing" : "422463",
		"grid_reference" : "SD693224",
		"town_area" : "Darwen, Bank Fold, Eccleshill, Hoddlesden, Lower Darwen, Pickup Bank, Tockholes",
		"region" : "Blackburn with Darwen",
		"postcodes" : "1212",
		"active_postcodes" : "918",
		"population" : "34200",
		"households" : "14813",
		"nearby_districts" : "BB0, BB1, BB2, BL7, BL1, BB5, BB6, BL3, BL11, BL2",
		"uk_region" : "North West",
		"post_town" : "Darwen"
	},
	{
		"postcode" : "BB4",
		"latitude" : "53.7035",
		"longitude" : "-2.291",
		"easting" : "380887",
		"northing" : "423047",
		"grid_reference" : "SD808230",
		"town_area" : "Acre, Bent Gate, Haslingden, Helmshore, Rawtenstall",
		"region" : "Rossendale",
		"postcodes" : "1834",
		"active_postcodes" : "1336",
		"population" : "41140",
		"households" : "17390",
		"nearby_districts" : "BL0, OL13, BB12, BL9, BB11, BB5, BL8, M45, BB10, BB3",
		"uk_region" : "North West",
		"post_town" : "Rossendale"
	},
	{
		"postcode" : "BB5",
		"latitude" : "53.7545",
		"longitude" : "-2.3723",
		"easting" : "375549",
		"northing" : "428746",
		"grid_reference" : "SD755287",
		"town_area" : "Accrington, Altham, Baxenden, Church, Clayton-le-Moors, Huncoat, Oswaldtwistle, Rising Bridge",
		"region" : "Hyndburn",
		"postcodes" : "2105",
		"active_postcodes" : "1556",
		"population" : "61420",
		"households" : "25822",
		"nearby_districts" : "BB6, BB0, BB1, BB12, BB4, BB7, BB2, BB3, BB11, BL0",
		"uk_region" : "North West",
		"post_town" : "Accrington"
	},
	{
		"postcode" : "BB6",
		"latitude" : "53.8036",
		"longitude" : "-2.41543",
		"easting" : "372738",
		"northing" : "434225",
		"grid_reference" : "SD727342",
		"town_area" : "Dinckley, Great Harwood, Langho",
		"region" : "Hyndburn",
		"postcodes" : "712",
		"active_postcodes" : "373",
		"population" : "14602",
		"households" : "6252",
		"nearby_districts" : "BB5, BB7, BB1, BB0, BB12, BB2, BB3, BL7, BB11, BB10",
		"uk_region" : "North West",
		"post_town" : "Blackburn"
	},
	{
		"postcode" : "BB7",
		"latitude" : "53.8717",
		"longitude" : "-2.38912",
		"easting" : "374512",
		"northing" : "441792",
		"grid_reference" : "SD745417",
		"town_area" : "Clitheroe, Barrow, Chatburn, Dunsop Bridge, Gisburn, Hurst Green, Pendleton, Sabden, Slaidburn, Waddington, Whalley, Whitewell, Wiswell",
		"region" : "Ribble Valley",
		"postcodes" : "1476",
		"active_postcodes" : "1221",
		"population" : "31641",
		"households" : "13509",
		"nearby_districts" : "BB6, BB5, BB12, BB1, BB0, BB9, BB11, BB8, BB2, BB10",
		"uk_region" : "North West",
		"post_town" : "Clitheroe"
	},
	{
		"postcode" : "BB8",
		"latitude" : "53.879",
		"longitude" : "-2.16811",
		"easting" : "389046",
		"northing" : "442547",
		"grid_reference" : "SD890425",
		"town_area" : "Colne, Foulridge, Laneshaw Bridge, Trawden, Winewall, Wycoller",
		"region" : "Pendle",
		"postcodes" : "1529",
		"active_postcodes" : "782",
		"population" : "23032",
		"households" : "10295",
		"nearby_districts" : "BB18, BB94, BB9, BB10, BB11, BB12, OL13, BD23, BB7, OL14",
		"uk_region" : "North West",
		"post_town" : "Colne"
	},
	{
		"postcode" : "BB9",
		"latitude" : "53.837",
		"longitude" : "-2.21594",
		"easting" : "385887",
		"northing" : "437883",
		"grid_reference" : "SD858378",
		"town_area" : "Nelson, Barrowford, Blacko, Brierfield, Higherford, Roughlee",
		"region" : "Pendle",
		"postcodes" : "1880",
		"active_postcodes" : "1396",
		"population" : "44588",
		"households" : "17604",
		"nearby_districts" : "BB10, BB11, BB8, BB12, BB18, OL13, BB94, BB7, BB4, BB6",
		"uk_region" : "North West",
		"post_town" : "Nelson"
	},
	{
		"postcode" : "BB10",
		"latitude" : "53.7993",
		"longitude" : "-2.22136",
		"easting" : "385517",
		"northing" : "433689",
		"grid_reference" : "SD855336",
		"town_area" : "Burnley, Cliviger, Reedley, Worsthorne",
		"region" : "Burnley",
		"postcodes" : "1141",
		"active_postcodes" : "889",
		"population" : "37183",
		"households" : "15694",
		"nearby_districts" : "BB9, BB11, BB12, OL13, BB8, BB18, BB4, BB5, BB94, BB6",
		"uk_region" : "North West",
		"post_town" : "Burnley"
	},
	{
		"postcode" : "BB11",
		"latitude" : "53.7848",
		"longitude" : "-2.25072",
		"easting" : "383578",
		"northing" : "432082",
		"grid_reference" : "SD835320",
		"town_area" : "Burnley",
		"region" : "Burnley",
		"postcodes" : "1456",
		"active_postcodes" : "833",
		"population" : "22428",
		"households" : "9909",
		"nearby_districts" : "BB10, BB12, BB9, BB4, OL13, BB5, BB8, BB6, BL0, BB18",
		"uk_region" : "North West",
		"post_town" : "Burnley"
	},
	{
		"postcode" : "BB12",
		"latitude" : "53.802",
		"longitude" : "-2.28892",
		"easting" : "381069",
		"northing" : "434005",
		"grid_reference" : "SD810340",
		"town_area" : "Burnley, Barley, Fence, Higham, Padiham, Read, Simonstone, Wheatley Lane",
		"region" : "Burnley",
		"postcodes" : "1229",
		"active_postcodes" : "976",
		"population" : "34620",
		"households" : "14926",
		"nearby_districts" : "BB11, BB10, BB4, BB9, BB6, BB5, BB7, BL0, OL13, BB8",
		"uk_region" : "North West",
		"post_town" : "Burnley"
	},
	{
		"postcode" : "BB18",
		"latitude" : "53.9151",
		"longitude" : "-2.17253",
		"easting" : "388765",
		"northing" : "446564",
		"grid_reference" : "SD887465",
		"town_area" : "Barnoldswick, Earby, Kelbrook, Salterforth, Sough",
		"region" : "Pendle",
		"postcodes" : "677",
		"active_postcodes" : "575",
		"population" : "17063",
		"households" : "7501",
		"nearby_districts" : "BB94, BB8, BB9, BB10, BD23, BB11, BB12, BD20, OL13, BB7",
		"uk_region" : "North West",
		"post_town" : "Barnoldswick"
	},
	{
		"postcode" : "BB94",
		"latitude" : "53.9155",
		"longitude" : "-2.14016",
		"easting" : "390891",
		"northing" : "446604",
		"grid_reference" : "SD908466",
		"town_area" : "Non-geographic, Earby ",
		"region" : "Pendle",
		"postcodes" : "21",
		"active_postcodes" : "0",
		"population" : null,
		"households" : null,
		"nearby_districts" : "BB18, BB8, BB9, BD23, BB10, BD20, OL14, BB11, BD22, BB12",
		"uk_region" : "North West",
		"post_town" : "Barnoldswick"
	},
	{
		"postcode" : "BD1",
		"latitude" : "53.7973",
		"longitude" : "-1.75433",
		"easting" : "416280",
		"northing" : "433471",
		"grid_reference" : "SE162334",
		"town_area" : "Bradford city centre, Little Germany",
		"region" : "Bradford ",
		"postcodes" : "1583",
		"active_postcodes" : "492",
		"population" : "3790",
		"households" : "1855",
		"nearby_districts" : "BD99, BD5, BD3, BD8, BD98, BD2, BD7, BD9, BD4, BD18",
		"uk_region" : "Yorkshire and The Humber",
		"post_town" : "Bradford"
	},
	{
		"postcode" : "BD2",
		"latitude" : "53.8142",
		"longitude" : "-1.73566",
		"easting" : "417502",
		"northing" : "435357",
		"grid_reference" : "SE175353",
		"town_area" : "Eccleshill, Fagley",
		"region" : "Bradford",
		"postcodes" : "881",
		"active_postcodes" : "732",
		"population" : "29799",
		"households" : "11728",
		"nearby_districts" : "BD3, BD10, BD98, BD1, BD99, BD4, BD9, BD18, BD5, BD8",
		"uk_region" : "Yorkshire and The Humber",
		"post_town" : "Bradford"
	},
	{
		"postcode" : "BD3",
		"latitude" : "53.7979",
		"longitude" : "-1.72997",
		"easting" : "417884",
		"northing" : "433544",
		"grid_reference" : "SE178335",
		"town_area" : "Barkerend, Bradford Moor, Thornbury",
		"region" : "Bradford",
		"postcodes" : "901",
		"active_postcodes" : "580",
		"population" : "33336",
		"households" : "9623",
		"nearby_districts" : "BD2, BD1, BD4, BD99, BD10, BD5, BD8, BD98, LS28, BD7",
		"uk_region" : "Yorkshire and The Humber",
		"post_town" : "Bradford"
	},
	{
		"postcode" : "BD4",
		"latitude" : "53.7767",
		"longitude" : "-1.72159",
		"easting" : "418445",
		"northing" : "431188",
		"grid_reference" : "SE184311",
		"town_area" : "Bierley, Bowling, East Bierley, Laisterdyke, Tong, Tong Street, Tyersal",
		"region" : "Bradford",
		"postcodes" : "1297",
		"active_postcodes" : "960",
		"population" : "31147",
		"households" : "12600",
		"nearby_districts" : "BD3, BD5, BD2, BD1, BD99, BD19, BD10, BD7, BD12, BD11",
		"uk_region" : "Yorkshire and The Humber",
		"post_town" : "Bradford"
	},
	{
		"postcode" : "BD5",
		"latitude" : "53.7795",
		"longitude" : "-1.75829",
		"easting" : "416026",
		"northing" : "431490",
		"grid_reference" : "SE160314",
		"town_area" : "Bankfoot, Little Horton, West Bowling",
		"region" : "Bradford",
		"postcodes" : "1077",
		"active_postcodes" : "632",
		"population" : "32021",
		"households" : "10706",
		"nearby_districts" : "BD99, BD1, BD7, BD12, BD4, BD6, BD8, BD98, BD3, BD2",
		"uk_region" : "Yorkshire and The Humber",
		"post_town" : "Bradford"
	},
	{
		"postcode" : "BD6",
		"latitude" : "53.7649",
		"longitude" : "-1.78453",
		"easting" : "414301",
		"northing" : "429860",
		"grid_reference" : "SE143298",
		"town_area" : "Buttershaw, Wibsey",
		"region" : "Bradford",
		"postcodes" : "912",
		"active_postcodes" : "736",
		"population" : "29771",
		"households" : "12154",
		"nearby_districts" : "BD7, BD12, BD8, BD5, BD9, BD14, BD99, BD1, HD6, BD98",
		"uk_region" : "Yorkshire and The Humber",
		"post_town" : "Bradford"
	},
	{
		"postcode" : "BD7",
		"latitude" : "53.7843",
		"longitude" : "-1.78106",
		"easting" : "414523",
		"northing" : "432020",
		"grid_reference" : "SE145320",
		"town_area" : "Great Horton, Lidget Green",
		"region" : "Bradford",
		"postcodes" : "915",
		"active_postcodes" : "630",
		"population" : "35214",
		"households" : "10861",
		"nearby_districts" : "BD8, BD6, BD5, BD99, BD9, BD14, BD1, BD98, BD18, BD12",
		"uk_region" : "Yorkshire and The Humber",
		"post_town" : "Bradford"
	},
	{
		"postcode" : "BD8",
		"latitude" : "53.8014",
		"longitude" : "-1.78067",
		"easting" : "414543",
		"northing" : "433922",
		"grid_reference" : "SE145339",
		"town_area" : "Girlington, Manningham, Lower Grange",
		"region" : "Bradford",
		"postcodes" : "932",
		"active_postcodes" : "628",
		"population" : "31893",
		"households" : "9700",
		"nearby_districts" : "BD7, BD9, BD99, BD1, BD98, BD18, BD6, BD97, BD5, BD3",
		"uk_region" : "Yorkshire and The Humber",
		"post_town" : "Bradford"
	},
	{
		"postcode" : "BD9",
		"latitude" : "53.8116",
		"longitude" : "-1.78844",
		"easting" : "414028",
		"northing" : "435055",
		"grid_reference" : "SE140350",
		"town_area" : "Frizinghall, Heaton",
		"region" : "Bradford",
		"postcodes" : "724",
		"active_postcodes" : "540",
		"population" : "28532",
		"households" : "7953",
		"nearby_districts" : "BD8, BD97, BD98, BD18, BD7, BD99, BD1, BD15, BD6, BD17",
		"uk_region" : "Yorkshire and The Humber",
		"post_town" : "Bradford"
	},
	{
		"postcode" : "BD10",
		"latitude" : "53.8311",
		"longitude" : "-1.72647",
		"easting" : "418100",
		"northing" : "437239",
		"grid_reference" : "SE181372",
		"town_area" : "Apperley Bridge, Eccleshill, Greengates, Idle, Thackley",
		"region" : "Bradford",
		"postcodes" : "916",
		"active_postcodes" : "715",
		"population" : "25694",
		"households" : "10790",
		"nearby_districts" : "BD2, BD3, BD18, BD98, LS20, BD17, BD4, BD1, BD99, LS19",
		"uk_region" : "Yorkshire and The Humber",
		"post_town" : "Bradford"
	},
	{
		"postcode" : "BD11",
		"latitude" : "53.7503",
		"longitude" : "-1.67769",
		"easting" : "421352",
		"northing" : "428263",
		"grid_reference" : "SE213282",
		"town_area" : "Birkenshaw, Drighlington",
		"region" : "Kirklees",
		"postcodes" : "376",
		"active_postcodes" : "309",
		"population" : "10971",
		"households" : "4713",
		"nearby_districts" : "WF16, LS28, BD19, WF15, BD4, WF17, LS27, WF14, BD12, WF13",
		"uk_region" : "Yorkshire and The Humber",
		"post_town" : "Bradford"
	},
	{
		"postcode" : "BD12",
		"latitude" : "53.7479",
		"longitude" : "-1.76238",
		"easting" : "415768",
		"northing" : "427973",
		"grid_reference" : "SE157279",
		"town_area" : "Low Moor, Oakenshaw, Wyke",
		"region" : "Bradford",
		"postcodes" : "743",
		"active_postcodes" : "607",
		"population" : "16821",
		"households" : "7362",
		"nearby_districts" : "BD5, BD6, BD99, BD7, BD1, HD6, BD19, BD4, BD8, BD98",
		"uk_region" : "Yorkshire and The Humber",
		"post_town" : "Bradford"
	},
	{
		"postcode" : "BD13",
		"latitude" : "53.788",
		"longitude" : "-1.85562",
		"easting" : "409610",
		"northing" : "432418",
		"grid_reference" : "SE096324",
		"town_area" : "Cullingworth, Denholme, Queensbury, Thornton",
		"region" : "Bradford",
		"postcodes" : "1173",
		"active_postcodes" : "966",
		"population" : "24817",
		"households" : "10525",
		"nearby_districts" : "BD15, BD14, HX3, HX1, BD7, BD16, BD8, BD9, BD6, BD97",
		"uk_region" : "Yorkshire and The Humber",
		"post_town" : "Bradford"
	},
	{
		"postcode" : "BD14",
		"latitude" : "53.7832",
		"longitude" : "-1.81793",
		"easting" : "412094",
		"northing" : "431890",
		"grid_reference" : "SE120318",
		"town_area" : "Clayton",
		"region" : "Bradford",
		"postcodes" : "279",
		"active_postcodes" : "240",
		"population" : "8860",
		"households" : "3388",
		"nearby_districts" : "BD7, BD15, BD13, BD6, BD8, BD9, BD5, BD97, BD99, BD16",
		"uk_region" : "Yorkshire and The Humber",
		"post_town" : "Bradford"
	},
	{
		"postcode" : "BD15",
		"latitude" : "53.8081",
		"longitude" : "-1.83518",
		"easting" : "410951",
		"northing" : "434658",
		"grid_reference" : "SE109346",
		"town_area" : "Allerton, Norr, Wilsden",
		"region" : "Bradford",
		"postcodes" : "576",
		"active_postcodes" : "444",
		"population" : "15713",
		"households" : "6272",
		"nearby_districts" : "BD13, BD14, BD16, BD9, BD97, BD8, BD7, BD98, BD18, BD99",
		"uk_region" : "Yorkshire and The Humber",
		"post_town" : "Bradford"
	},
	{
		"postcode" : "BD16",
		"latitude" : "53.8469",
		"longitude" : "-1.83113",
		"easting" : "411208",
		"northing" : "438976",
		"grid_reference" : "SE112389",
		"town_area" : "Bingley, Cottingley, Eldwick, Harden",
		"region" : "Bingley",
		"postcodes" : "1190",
		"active_postcodes" : "832",
		"population" : "25630",
		"households" : "11391",
		"nearby_districts" : "BD15, BD97, BD17, BD18, BD14, BD9, BD13, BD21, BD98, BD8",
		"uk_region" : "Yorkshire and The Humber",
		"post_town" : "Bingley"
	},
	{
		"postcode" : "BD17",
		"latitude" : "53.8451",
		"longitude" : "-1.76899",
		"easting" : "415297",
		"northing" : "438787",
		"grid_reference" : "SE152387",
		"town_area" : "Baildon, Shipley",
		"region" : "Bradford",
		"postcodes" : "840",
		"active_postcodes" : "625",
		"population" : "17992",
		"households" : "8174",
		"nearby_districts" : "BD18, BD98, BD97, BD9, BD8, BD10, BD99, BD1, BD16, BD2",
		"uk_region" : "Yorkshire and The Humber",
		"post_town" : "Shipley"
	},
	{
		"postcode" : "BD18",
		"latitude" : "53.8297",
		"longitude" : "-1.77615",
		"easting" : "414831",
		"northing" : "437072",
		"grid_reference" : "SE148370",
		"town_area" : "Saltaire, Shipley",
		"region" : "Bradford",
		"postcodes" : "1059",
		"active_postcodes" : "731",
		"population" : "27292",
		"households" : "11419",
		"nearby_districts" : "BD17, BD98, BD97, BD9, BD8, BD7, BD10, BD99, BD1, BD2",
		"uk_region" : "Yorkshire and The Humber",
		"post_town" : "Shipley"
	},
	{
		"postcode" : "BD19",
		"latitude" : "53.7266",
		"longitude" : "-1.71438",
		"easting" : "418943",
		"northing" : "425616",
		"grid_reference" : "SE189256",
		"town_area" : "Cleckheaton, Gomersal, Scholes",
		"region" : "Kirklees",
		"postcodes" : "984",
		"active_postcodes" : "702",
		"population" : "22059",
		"households" : "9648",
		"nearby_districts" : "WF15, BD4, BD11, WF16, BD12, WF14, WF17, BD3, HD6, BD5",
		"uk_region" : "Yorkshire and The Humber",
		"post_town" : "Cleckheaton"
	},
	{
		"postcode" : "BD20",
		"latitude" : "53.896",
		"longitude" : "-1.94668",
		"easting" : "403602",
		"northing" : "444426",
		"grid_reference" : "SE036444",
		"town_area" : "Cononley, Cross Hills, Glusburn, Kildwick, Silsden, Steeton, Sutton-in-Craven",
		"region" : "Bradford",
		"postcodes" : "1626",
		"active_postcodes" : "1380",
		"population" : "35800",
		"households" : "15059",
		"nearby_districts" : "BD22, BD21, BD16, LS29, BD23, BD13, BD15, HX2, BB94, HX7",
		"uk_region" : "Yorkshire and The Humber",
		"post_town" : "Keighley"
	},
	{
		"postcode" : "BD21",
		"latitude" : "53.8646",
		"longitude" : "-1.90846",
		"easting" : "406118",
		"northing" : "440936",
		"grid_reference" : "SE061409",
		"town_area" : "Hainworth, Keighley",
		"region" : "Bradford",
		"postcodes" : "1410",
		"active_postcodes" : "945",
		"population" : "26636",
		"households" : "9811",
		"nearby_districts" : "BD22, BD20, BD16, BD13, BD15, HX2, BD97, BD17, LS29, BD18",
		"uk_region" : "Yorkshire and The Humber",
		"post_town" : "Keighley"
	},
	{
		"postcode" : "BD22",
		"latitude" : "53.8468",
		"longitude" : "-1.95231",
		"easting" : "403235",
		"northing" : "438952",
		"grid_reference" : "SE032389",
		"town_area" : "Cowling, Haworth, Oakworth, Oxenhope",
		"region" : "Bradford",
		"postcodes" : "1253",
		"active_postcodes" : "1069",
		"population" : "29891",
		"households" : "12660",
		"nearby_districts" : "BD20, BD21, BD16, BD13, BD15, HX2, HX7, BD97, HX6, BD17",
		"uk_region" : "Yorkshire and The Humber",
		"post_town" : "Keighley"
	},
	{
		"postcode" : "BD23",
		"latitude" : "53.9885",
		"longitude" : "-2.05214",
		"easting" : "396679",
		"northing" : "454718",
		"grid_reference" : "SD966547",
		"town_area" : "Carleton-in-Craven, Embsay, Gargrave, Grassington, Hebden, Hellifield, Kettlewell, Kirkby Malham, Skipton, Threshfield",
		"region" : "Craven",
		"postcodes" : "1849",
		"active_postcodes" : "1447",
		"population" : "29515",
		"households" : "13216",
		"nearby_districts" : "BB94, BB18, BD20, BB8, BD22, BD21, HX7, BB9, LS29, BD24",
		"uk_region" : "Yorkshire and The Humber",
		"post_town" : "Skipton"
	},
	{
		"postcode" : "BD24",
		"latitude" : "54.0768",
		"longitude" : "-2.28154",
		"easting" : "381676",
		"northing" : "464578",
		"grid_reference" : "SD816645",
		"town_area" : "Giggleswick, Horton in Ribblesdale, Settle",
		"region" : "Craven",
		"postcodes" : "405",
		"active_postcodes" : "337",
		"population" : "5180",
		"households" : "2344",
		"nearby_districts" : "BB18, BB12, BB94, BB9, BB8, BB7, BD23, BB11, BB10, BB4",
		"uk_region" : "Yorkshire and The Humber",
		"post_town" : "Skipton, Settle"
	},
	{
		"postcode" : "BD97",
		"latitude" : "53.8265",
		"longitude" : "-1.79674",
		"easting" : "413477",
		"northing" : "436712",
		"grid_reference" : "SE134367",
		"town_area" : "Bingley",
		"region" : "Bradford",
		"postcodes" : "4",
		"active_postcodes" : "4",
		"population" : null,
		"households" : null,
		"nearby_districts" : "BD9, BD18, BD98, BD8, BD17, BD16, BD15, BD7, BD14, BD99",
		"uk_region" : "Yorkshire and The Humber",
		"post_town" : "Bingley"
	},
	{
		"postcode" : "BD98",
		"latitude" : "53.817",
		"longitude" : "-1.76545",
		"easting" : "415540",
		"northing" : "435661",
		"grid_reference" : "SE155356",
		"town_area" : "Shipley",
		"region" : "Bradford",
		"postcodes" : "18",
		"active_postcodes" : "16",
		"population" : null,
		"households" : null,
		"nearby_districts" : "BD18, BD9, BD99, BD1, BD8, BD17, BD2, BD97, BD5, BD7",
		"uk_region" : "Yorkshire and The Humber",
		"post_town" : "Bradford, Shipley"
	},
	{
		"postcode" : "BD99",
		"latitude" : "53.7946",
		"longitude" : "-1.75879",
		"easting" : "415987",
		"northing" : "433170",
		"grid_reference" : "SE159331",
		"town_area" : "Bradford",
		"region" : "Bradford",
		"postcodes" : "19",
		"active_postcodes" : "6",
		"population" : null,
		"households" : null,
		"nearby_districts" : "BD1, BD5, BD8, BD98, BD3, BD7, BD2, BD9, BD12, BD18",
		"uk_region" : "Yorkshire and The Humber",
		"post_town" : "Bradford"
	},
	{
		"postcode" : "BF1",
		"latitude" : null,
		"longitude" : null,
		"easting" : null,
		"northing" : null,
		"grid_reference" : null,
		"town_area" : "British Forces",
		"region" : "British Forces",
		"postcodes" : "48",
		"active_postcodes" : "48",
		"population" : null,
		"households" : null,
		"nearby_districts" : null,
		"uk_region" : null,
		"post_town" : "BFPO"
	},
	{
		"postcode" : "BH1",
		"latitude" : "50.7253",
		"longitude" : "-1.86303",
		"easting" : "409764",
		"northing" : "91751",
		"grid_reference" : "SZ097917",
		"town_area" : "Bournemouth town centre, Springbourne, East Cliff, Boscombe",
		"region" : "Bournemouth ",
		"postcodes" : "1510",
		"active_postcodes" : "619",
		"population" : "19992",
		"households" : "10265",
		"nearby_districts" : "BH2, BH8, BH5, BH3, BH9, BH7, BH4, BH6, BH10, BH13",
		"uk_region" : "South West",
		"post_town" : "Bournemouth"
	},
	{
		"postcode" : "BH2",
		"latitude" : "50.7219",
		"longitude" : "-1.88132",
		"easting" : "408474",
		"northing" : "91371",
		"grid_reference" : "SZ084913",
		"town_area" : "Bournemouth Central, West Cliff",
		"region" : "Bournemouth",
		"postcodes" : "509",
		"active_postcodes" : "275",
		"population" : "8431",
		"households" : "4799",
		"nearby_districts" : "BH3, BH4, BH1, BH9, BH8, BH5, BH13, BH10, BH12, BH7",
		"uk_region" : "South West",
		"post_town" : "Bournemouth"
	},
	{
		"postcode" : "BH3",
		"latitude" : "50.7355",
		"longitude" : "-1.88022",
		"easting" : "408549",
		"northing" : "92883",
		"grid_reference" : "SZ085928",
		"town_area" : "Talbot Woods, Winton",
		"region" : "Bournemouth",
		"postcodes" : "197",
		"active_postcodes" : "130",
		"population" : "5635",
		"households" : "2275",
		"nearby_districts" : "BH2, BH9, BH1, BH8, BH4, BH10, BH12, BH7, BH5, BH13",
		"uk_region" : "South West",
		"post_town" : "Bournemouth"
	},
	{
		"postcode" : "BH4",
		"latitude" : "50.7217",
		"longitude" : "-1.90057",
		"easting" : "407115",
		"northing" : "91346",
		"grid_reference" : "SZ071913",
		"town_area" : "Westbourne, Branksome Woods",
		"region" : "Bournemouth",
		"postcodes" : "516",
		"active_postcodes" : "241",
		"population" : "9565",
		"households" : "5216",
		"nearby_districts" : "BH2, BH13, BH3, BH12, BH1, BH10, BH14, BH9, BH11, BH8",
		"uk_region" : "South West",
		"post_town" : "Bournemouth"
	},
	{
		"postcode" : "BH5",
		"latitude" : "50.7257",
		"longitude" : "-1.83704",
		"easting" : "411599",
		"northing" : "91799",
		"grid_reference" : "SZ115917",
		"town_area" : "Boscombe, Pokesdown",
		"region" : "Bournemouth",
		"postcodes" : "366",
		"active_postcodes" : "250",
		"population" : "10816",
		"households" : "5457",
		"nearby_districts" : "BH7, BH1, BH6, BH8, BH2, BH3, BH9, BH4, BH10, BH13",
		"uk_region" : "South West",
		"post_town" : "Bournemouth"
	},
	{
		"postcode" : "BH6",
		"latitude" : "50.7277",
		"longitude" : "-1.80921",
		"easting" : "413563",
		"northing" : "92026",
		"grid_reference" : "SZ135920",
		"town_area" : "Southbourne, Tuckton, Wick",
		"region" : "Bournemouth",
		"postcodes" : "710",
		"active_postcodes" : "525",
		"population" : "22725",
		"households" : "10270",
		"nearby_districts" : "BH5, BH7, BH1, BH8, BH23, BH2, BH3, BH9, BH4, BH10",
		"uk_region" : "South West",
		"post_town" : "Bournemouth"
	},
	{
		"postcode" : "BH7",
		"latitude" : "50.7346",
		"longitude" : "-1.83415",
		"easting" : "411801",
		"northing" : "92789",
		"grid_reference" : "SZ118927",
		"town_area" : "Littledown, Iford",
		"region" : "Bournemouth",
		"postcodes" : "473",
		"active_postcodes" : "294",
		"population" : "11495",
		"households" : "4819",
		"nearby_districts" : "BH5, BH8, BH6, BH1, BH3, BH9, BH2, BH4, BH10, BH23",
		"uk_region" : "South West",
		"post_town" : "Bournemouth"
	},
	{
		"postcode" : "BH8",
		"latitude" : "50.7397",
		"longitude" : "-1.85393",
		"easting" : "410404",
		"northing" : "93354",
		"grid_reference" : "SZ104933",
		"town_area" : "Malmesbury Park, Charminster, Queens Park, Strouden Park, Townsend",
		"region" : "Bournemouth",
		"postcodes" : "909",
		"active_postcodes" : "649",
		"population" : "28262",
		"households" : "12043",
		"nearby_districts" : "BH1, BH7, BH3, BH5, BH9, BH2, BH6, BH10, BH4, BH12",
		"uk_region" : "South West",
		"post_town" : "Bournemouth"
	},
	{
		"postcode" : "BH9",
		"latitude" : "50.7498",
		"longitude" : "-1.87481",
		"easting" : "408928",
		"northing" : "94474",
		"grid_reference" : "SZ089944",
		"town_area" : "Winton, Moordown, Throop, Muscliff",
		"region" : "Bournemouth",
		"postcodes" : "886",
		"active_postcodes" : "668",
		"population" : "30964",
		"households" : "11873",
		"nearby_districts" : "BH3, BH10, BH8, BH2, BH1, BH4, BH7, BH11, BH12, BH5",
		"uk_region" : "South West",
		"post_town" : "Bournemouth"
	}
]
